Municipio,Nombre,Tipo,Latitud,Longitud,Consultorios,Camas
Acambay de Ruíz Castañeda,HOSPITAL MUNICIPAL ACAMBAY IGNACIO ALLENDE BICENTENARIO,UNIDAD DE HOSPITALIZACION,19.943803,-99.869315,7,28
Acambay de Ruíz Castañeda,CENTRO DE SALUD AGOSTADERO,UNIDAD DE CONSULTA EXTERNA,20.0406,-100.002563,2,0
Acambay de Ruíz Castañeda,CENTRO DE SALUD CONEJERAS,UNIDAD DE CONSULTA EXTERNA,20.012608,-99.961818,1,0
Acambay de Ruíz Castañeda,CENTRO DE SALUD LA LOMA,UNIDAD DE CONSULTA EXTERNA,20.0201567,-100.0103716,2,0
Acambay de Ruíz Castañeda,CENTRO DE SALUD PUENTECILLAS,UNIDAD DE CONSULTA EXTERNA,20.023744,-99.965303,1,0
Acambay de Ruíz Castañeda,CENTRO DE SALUD SANTA MARIA TIXMADEJE,UNIDAD DE CONSULTA EXTERNA,19.964236,-99.940211,1,0
Acambay de Ruíz Castañeda,DATEJE,UNIDAD DE CONSULTA EXTERNA,19.997822,-99.829931,1,0
Acambay de Ruíz Castañeda,DONGU,UNIDAD DE CONSULTA EXTERNA,19.971406,-99.868027,1,0
Acambay de Ruíz Castañeda,DOXTEJE CENTRO,UNIDAD DE CONSULTA EXTERNA,19.960123,-99.951347,1,0
Acambay de Ruíz Castañeda,GANZDA,UNIDAD DE CONSULTA EXTERNA,19.989116,-99.846731,1,0
Acambay de Ruíz Castañeda,JUANDO,UNIDAD DE CONSULTA EXTERNA,20.031399,-99.998634,1,0
Acambay de Ruíz Castañeda,LA ESTANCIA I,UNIDAD DE CONSULTA EXTERNA,19.869837,-99.791793,1,0
Acambay de Ruíz Castañeda,LA ESTANCIA II,UNIDAD DE CONSULTA EXTERNA,19.85264192,-99.78470969,1,0
Acambay de Ruíz Castañeda,LA SOLEDAD,UNIDAD DE CONSULTA EXTERNA,19.924731,-99.902154,1,0
Acambay de Ruíz Castañeda,LAS MANGAS,UNIDAD DE CONSULTA EXTERNA,20.011954,-100.046686,1,0
Acambay de Ruíz Castañeda,LOS PILARES,UNIDAD DE CONSULTA EXTERNA,20.00519363,-99.71964979,1,0
Acambay de Ruíz Castañeda,MADO SECTOR I,UNIDAD DE CONSULTA EXTERNA,19.97748729,-99.76416373,1,0
Acambay de Ruíz Castañeda,MUYTEJE,UNIDAD DE CONSULTA EXTERNA,20.016863,-99.93119,1,0
Acambay de Ruíz Castañeda,SAN FRANCISCO SHAXNI,UNIDAD DE CONSULTA EXTERNA,20.050507,-99.995799,1,0
Acambay de Ruíz Castañeda,SAN JUANICO I,UNIDAD DE CONSULTA EXTERNA,19.9368797,-99.76787847,2,0
Acambay de Ruíz Castañeda,SAN PEDRO DE LOS METATES,UNIDAD DE CONSULTA EXTERNA,19.897981,-99.858239,1,0
Acambay de Ruíz Castañeda,TIXMADEJE CHIQUITO,UNIDAD DE CONSULTA EXTERNA,19.964747,-99.912561,1,0
Acambay de Ruíz Castañeda,CARAVANA ACAMBAY,UNIDAD DE CONSULTA EXTERNA,19.95467,-99.843084,2,0
Acambay de Ruíz Castañeda,PUEBLO NUEVO,UNIDAD DE CONSULTA EXTERNA,19.93228301,-99.91876346,2,0
Acambay de Ruíz Castañeda,CSU ACAMBAY,UNIDAD DE CONSULTA EXTERNA,19.95474829,-99.84298033,5,0
Acolman,TEPEXPAN DR. GUSTAVO BAZ PRADA,UNIDAD DE HOSPITALIZACION,19.61149802,-98.94102747,22,186
Acolman,HOSPITAL PSIQUIÁTRICO DR. ADOLFO M. NIETO TEPEXPAN,UNIDAD DE HOSPITALIZACION,19.612701,-98.952751,15,300
Acolman,HOSPITAL PSIQUIÁTRICO JOSÉ SAYAGO,UNIDAD DE HOSPITALIZACION,19.611483,-98.944548,2,261
Acolman,SAN MIGUEL TOTOLCINGO,UNIDAD DE CONSULTA EXTERNA,19.614527,-98.959137,3,0
Acolman,CHIPILTEPEC,UNIDAD DE CONSULTA EXTERNA,19.616243,-98.88949,3,0
Acolman,SAN FRANCISCO ZACANGO,UNIDAD DE CONSULTA EXTERNA,19.612909,-98.904739,1,0
Acolman,SANTA CATARINA,UNIDAD DE CONSULTA EXTERNA,19.635498,-98.923569,3,0
Acolman,SANTA MARÍA ACOLMAN,UNIDAD DE CONSULTA EXTERNA,19.649668,-98.904397,3,0
Acolman,ACOLMAN,UNIDAD DE CONSULTA EXTERNA,19.635994,-98.911457,3,0
Acolman,CENTRO DE SALUD LAS BRISAS,UNIDAD DE CONSULTA EXTERNA,19.597805,-98.981763,4,0
Acolman,CUANALAN,UNIDAD DE CONSULTA EXTERNA,19.614314,-98.917604,3,0
Acolman,SAN MARCOS NEPANTLA,UNIDAD DE CONSULTA EXTERNA,19.6707,-98.9308,3,0
Acolman,SAN PEDRO TEPETITLÁN,UNIDAD DE CONSULTA EXTERNA,19.630381,-98.891303,3,0
Acolman,XOMETLA,UNIDAD DE CONSULTA EXTERNA,19.643587,-98.882896,4,0
Aculco,CEAPS ACULCO,UNIDAD DE CONSULTA EXTERNA,20.095865,-99.826707,6,2
Aculco,C.S. ARROYO ZARCO,UNIDAD DE CONSULTA EXTERNA,20.104939,-99.731222,1,0
Aculco,CENTRO DE SALUD BAÑE,UNIDAD DE CONSULTA EXTERNA,20.196621,-99.843761,1,0
Aculco,CENTRO DE SALUD EL ZETHE (JAZMIN),UNIDAD DE CONSULTA EXTERNA,20.020684,-99.877403,1,0
Aculco,CENTRO DE SALUD GUNYO PONIENTE,UNIDAD DE CONSULTA EXTERNA,20.116495,-99.849868,1,0
Aculco,CENTRO DE SALUD JURICA,UNIDAD DE CONSULTA EXTERNA,20.133639,-99.763546,1,0
Aculco,CENTRO DE SALUD MOGOTE,UNIDAD DE CONSULTA EXTERNA,20.167211,-99.91447,1,0
Aculco,EL AZAFRAN,UNIDAD DE CONSULTA EXTERNA,20.036426,-99.718184,1,0
Aculco,FONDO,UNIDAD DE CONSULTA EXTERNA,20.05925,-99.765006,1,0
Aculco,LA CONCEPCIÓN,UNIDAD DE CONSULTA EXTERNA,20.14648,-99.925039,1,0
Aculco,SAN MARTÍN EJIDO,UNIDAD DE CONSULTA EXTERNA,20.074822,-99.698706,1,0
Aculco,SANTA ANA MATLABAT,UNIDAD DE CONSULTA EXTERNA,20.147033,-99.796646,1,0
Aculco,SANTIAGO OXTHOC TOXHIE,UNIDAD DE CONSULTA EXTERNA,20.0169,-99.8472,1,0
Aculco,CENTRO DE SALUD SAN JOAQUÍN COSCOMATEPEC,UNIDAD DE CONSULTA EXTERNA,20.108504,-99.899837,2,0
Aculco,CENTRO DE SALUD SANTA MARÍA NATIVITAS,UNIDAD DE CONSULTA EXTERNA,20.093211,-99.795941,3,0
Aculco,EJIDO SAN JERONIMO,UNIDAD DE CONSULTA EXTERNA,20.087151,-99.8644,2,0
Aculco,SAN PEDRO DENXHI,UNIDAD DE CONSULTA EXTERNA,20.242672,-99.963906,2,0
Aculco,CARAVANA BONXHI,UNIDAD DE CONSULTA EXTERNA,20.087212,-99.864369,2,0
Aculco,SAN LUCAS TERCER CUARTEL,UNIDAD DE CONSULTA EXTERNA,20.144627,-99.882921,3,0
Aculco,SAN LUCAS TOTOLMALOYA,UNIDAD DE CONSULTA EXTERNA,20.164026,-99.897604,2,0
Almoloya de Alquisiras,CEAPS ALMOLOYA DE ALQUISIRAS LEANDRO VALLE,UNIDAD DE CONSULTA EXTERNA,18.859942,-99.889159,5,2
Almoloya de Alquisiras,C.S. AQUIAPAN,UNIDAD DE CONSULTA EXTERNA,18.744483,-99.851612,1,0
Almoloya de Alquisiras,PACHUQUILLA,UNIDAD DE CONSULTA EXTERNA,18.837742,-99.811005,1,0
Almoloya de Alquisiras,PLAN DE VIGAS,UNIDAD DE CONSULTA EXTERNA,18.8108,-99.8862,1,0
Almoloya de Alquisiras,SAN ANDRÉS TEPETITLAN,UNIDAD DE CONSULTA EXTERNA,18.898007,-99.918312,1,0
Almoloya de Juárez,LA GAVIA,UNIDAD DE CONSULTA EXTERNA,19.3876,-99.879363,1,0
Almoloya de Juárez,PALOS AMARILLOS,UNIDAD DE CONSULTA EXTERNA,19.539452,-99.916881,1,0
Almoloya de Juárez,SALITRE DE MAÑONES 2,UNIDAD DE CONSULTA EXTERNA,19.439214,-99.78827,1,0
Almoloya de Juárez,CEAPS DR. MANUEL URIBE Y TRONCOSO,UNIDAD DE CONSULTA EXTERNA,19.343421,-99.746698,5,8
Almoloya de Juárez,CIENEGUILLAS,UNIDAD DE CONSULTA EXTERNA,19.407676,-99.857312,2,0
Almoloya de Juárez,DILATADA SUR,UNIDAD DE CONSULTA EXTERNA,19.298581,-99.902196,1,0
Almoloya de Juárez,OCOYOTEPEC CENTRO,UNIDAD DE CONSULTA EXTERNA,19.495052,-99.842499,1,0
Almoloya de Juárez,PAREDON EJIDO,UNIDAD DE CONSULTA EXTERNA,19.386716,-99.840117,1,0
Almoloya de Juárez,SAN ANTONIO BUENAVISTA,UNIDAD DE CONSULTA EXTERNA,19.34876,-99.903738,1,0
Almoloya de Juárez,SAN PEDRO DE LA HORTALIZA,UNIDAD DE CONSULTA EXTERNA,19.389422,-99.819715,1,0
Almoloya de Juárez,EL ESTANCO,UNIDAD DE CONSULTA EXTERNA,19.325798,-99.884703,2,0
Almoloya de Juárez,MEXTEPEC,UNIDAD DE CONSULTA EXTERNA,19.460928,-99.891345,2,0
Almoloya de Juárez,SAN AGUSTÍN CITLALI,UNIDAD DE CONSULTA EXTERNA,19.484592,-99.796731,2,0
Almoloya de Juárez,SAN AGUSTÍN POTEJE CENTRO,UNIDAD DE CONSULTA EXTERNA,19.341609,-99.819729,2,0
Almoloya de Juárez,SANTA CATARINA TABERNILLAS,UNIDAD DE CONSULTA EXTERNA,19.467869,-99.866052,2,0
Almoloya de Juárez,SANTA JUANA 1A.SECC.,UNIDAD DE CONSULTA EXTERNA,19.386568,-99.737083,2,0
Almoloya de Juárez,YEBUCIVI,UNIDAD DE CONSULTA EXTERNA,19.504935,-99.906983,2,0
Almoloya de Juárez,MAYORAZGO DE LEÓN,UNIDAD DE CONSULTA EXTERNA,19.46095,-99.758147,2,0
Almoloya de Juárez,SAN FRANCISCO TLALCILALCALPAN,UNIDAD DE CONSULTA EXTERNA,19.29096,-99.770319,2,0
Almoloya de Juárez,SAN MIGUEL TLALCHICHILPAN,UNIDAD DE CONSULTA EXTERNA,19.344897,-99.759303,2,0
Almoloya de Juárez,SAN PEDRO DE LA CONCEPCIÓN,UNIDAD DE CONSULTA EXTERNA,19.366332,-99.765855,2,0
Almoloya de Juárez,SANTIAGUITO TLALCILALCALLI,UNIDAD DE CONSULTA EXTERNA,19.338716,-99.728128,2,0
Almoloya de Juárez,CENTRO DE SALUD SAN FRANCISCO TLALCILALCALPAN II,UNIDAD DE CONSULTA EXTERNA,19.299096,-99.780231,4,0
Almoloya de Juárez,SAN MIGUEL ALMOLOYAN,UNIDAD DE CONSULTA EXTERNA,19.358276,-99.802047,3,0
Almoloya de Juárez,CENTRO DE SALUD URBANO ALMOLOYA DE JUÁREZ,UNIDAD DE CONSULTA EXTERNA,19.36788,-99.75559,9,0
Almoloya del Río,CEAPS ALMOLOYA DEL RÍO LEONARDO BRAVO BICENTENARIO,UNIDAD DE CONSULTA EXTERNA,19.162937,-99.488617,7,6
Amanalco,RINCÓN DE GUADALUPE,UNIDAD DE CONSULTA EXTERNA,19.268714,-99.991243,1,0
Amanalco,AGUA BENDITA,UNIDAD DE CONSULTA EXTERNA,19.273532,-99.944683,1,0
Amanalco,EL CAPULIN,UNIDAD DE CONSULTA EXTERNA,19.293376,-99.943449,1,0
Amanalco,EL POTRERO,UNIDAD DE CONSULTA EXTERNA,19.306101,-99.993993,1,0
Amanalco,SAN BARTOLO,UNIDAD DE CONSULTA EXTERNA,19.248219,-100.056445,1,0
Amanalco,SAN MATEO,UNIDAD DE CONSULTA EXTERNA,19.279974,-100.015133,1,0
Amanalco,SAN JERÓNIMO,UNIDAD DE CONSULTA EXTERNA,19.240602,-100.02231,3,0
Amanalco,AMANALCO,UNIDAD DE CONSULTA EXTERNA,19.253818,-100.022128,3,0
Amatepec,CEAPS AMATEPEC,UNIDAD DE CONSULTA EXTERNA,18.682822,-100.185877,10,5
Amatepec,AGUACATITLÁN,UNIDAD DE CONSULTA EXTERNA,18.709017,-100.289299,1,0
Amatepec,CINCUENTA ARROBAS,UNIDAD DE CONSULTA EXTERNA,18.652603,-100.382364,1,0
Amatepec,EL CERRO DEL CAMPO,UNIDAD DE CONSULTA EXTERNA,18663208,-100.263083,1,0
Amatepec,EL SALITRE PALMARILLOS,UNIDAD DE CONSULTA EXTERNA,18.724666,-100.288285,2,0
Amatepec,GOLETA LA,UNIDAD DE CONSULTA EXTERNA,18.678244,-100.099655,1,0
Amatepec,PUENTE VIEJO,UNIDAD DE CONSULTA EXTERNA,18.791818,-100.179218,1,0
Amatepec,SAN MARTÍN,UNIDAD DE CONSULTA EXTERNA,18.75163,-100.241371,1,0
Amatepec,SAN MIGUEL ZINACAUSTO,UNIDAD DE CONSULTA EXTERNA,18.713837,-100.242724,1,0
Amatepec,SAN SIMON,UNIDAD DE CONSULTA EXTERNA,18.746613,-100.173317,1,0
Amatepec,SANTIAGO AMATEPEC,UNIDAD DE CONSULTA EXTERNA,18.68968,-100.24392,1,0
Amatepec,U. MÓVIL ISEM BARRANCA DE ESMERALDAS,UNIDAD DE CONSULTA EXTERNA,18.698801,-100.368941,0,0
Amatepec,U. MÓVIL ISEM CERRO DE LAS ANIMAS,UNIDAD DE CONSULTA EXTERNA,18.698801,-100.368941,0,0
Amatepec,U. MÓVIL ISEM LA PAROTA,UNIDAD DE CONSULTA EXTERNA,18.682859,-100.185754,0,0
Amatepec,U. MÓVIL ISEM MANGO MATUZ,UNIDAD DE CONSULTA EXTERNA,18.698801,-100.368941,0,0
Amatepec,PALMAR CHICO,UNIDAD DE CONSULTA EXTERNA,18.698814,-100.368934,4,0
Amecameca,H.G. VALENTÍN GÓMEZ FARÍAS (SAN FRANCISCO ZENTLALPAN),UNIDAD DE HOSPITALIZACION,19.14126,-98.785105,9,98
Amecameca,CENTRO DE SALUD SANTA ISABEL CHALMA AMECAMECA,UNIDAD DE CONSULTA EXTERNA,19.158172,-98.761427,1,0
Amecameca,ZOYATZINGO,UNIDAD DE CONSULTA EXTERNA,19.09143624,-98.78536922,1,0
Amecameca,SAN PEDRO NEXAPA,UNIDAD DE CONSULTA EXTERNA,19.081637,-98.730733,3,0
Amecameca,AMECAMECA,UNIDAD DE CONSULTA EXTERNA,19.115154,-98.769335,7,0
Amecameca,ALMACÉN JURISDICCIONAL AMECAMECA,ESTABLECIMIENTO DE APOYO,19.129485,-99.771599,0,0
Apaxco,COYOTILLOS,UNIDAD DE CONSULTA EXTERNA,20.000552,-99.157577,1,0
Apaxco,SANTA MARÍA APAXCO,UNIDAD DE CONSULTA EXTERNA,19.569466,-99.765138,1,0
Apaxco,APAXCO,UNIDAD DE CONSULTA EXTERNA,19.979335,-99.169152,3,0
Atenco,CEAPS SAN SALVADOR ATENCO,UNIDAD DE CONSULTA EXTERNA,19.54664,-98.914321,8,6
Atenco,CEAPS SANTA ROSA,UNIDAD DE CONSULTA EXTERNA,19.590237,-98.96584,5,1
Atenco,ZAPOTLAN,UNIDAD DE CONSULTA EXTERNA,19.54718718,-98.90017057,2,0
Atenco,SN CRISTÓBAL NEXQUIPAYAC,UNIDAD DE CONSULTA EXTERNA,19.581724,-98.9306748,1,0
Atenco,SAN FRANCISCO ACUEXCOMAC,UNIDAD DE CONSULTA EXTERNA,19.560428,-98.912778,2,0
Atenco,SANTA ISABEL IXTAPAN,UNIDAD DE CONSULTA EXTERNA,19.58221,-98.946,3,0
Atizapán,HOSPITAL MUNICIPAL SANTA CRUZ ATIZAPÁN BICENTENARIO,UNIDAD DE HOSPITALIZACION,19.181763,-99.490306,9,20
Atizapán de Zaragoza,HOSPITAL MATERNO INFANTIL GUADALUPE VICTORIA ATIZAPÁN DE ZARAGOZA,UNIDAD DE HOSPITALIZACION,19.5973,-99.263184,7,110
Atizapán de Zaragoza,H.G. DR.SALVADOR GONZÁLEZ HERREJON,UNIDAD DE HOSPITALIZACION,19.546222,-99.237508,29,178
Atizapán de Zaragoza,CSC/H COLONIA HIGUERA (MOD.MATERNO INFANTIL),UNIDAD DE CONSULTA EXTERNA,19.565107,-99.243431,6,2
Atizapán de Zaragoza,MÓDULO ODONTOPEDIÁTRICO LAS ALAMEDAS,UNIDAD DE CONSULTA EXTERNA,19.5565611,-99.2510333,1,0
Atizapán de Zaragoza,CAPA CENTRO NUEVA VIDA ATIZAPAN,UNIDAD DE CONSULTA EXTERNA,19.5967389,-99.23470833,3,0
Atizapán de Zaragoza,CENTRO DE SALUD EL POTRERO,UNIDAD DE CONSULTA EXTERNA,19.5476722,-99.2371,2,0
Atizapán de Zaragoza,CENTRO DE SALUD LA CAÑADA,UNIDAD DE CONSULTA EXTERNA,19.593878,-99.251591,2,0
Atizapán de Zaragoza,COL. MÉXICO NUEVO,UNIDAD DE CONSULTA EXTERNA,19.5611972,-99.26461667,2,0
Atizapán de Zaragoza,COL. UNIVERSIDAD AUTONOMA METROPOLITANA,UNIDAD DE CONSULTA EXTERNA,19.60597475,-99.2515397,2,0
Atizapán de Zaragoza,SAN MARTÍN DE PORRES,UNIDAD DE CONSULTA EXTERNA,19.540975,-99.25008,3,0
Atizapán de Zaragoza,COLONIA LAS PEÑITAS,UNIDAD DE CONSULTA EXTERNA,19.581486,-99.2258833,3,0
Atizapán de Zaragoza,MARGARITA MAZA DE JUÁREZ,UNIDAD DE CONSULTA EXTERNA,19.58923954,-99.22478199,3,0
Atizapán de Zaragoza,LAS COLONIAS,UNIDAD DE CONSULTA EXTERNA,19.561734,-99.23297019,5,0
Atizapán de Zaragoza,LOMAS DE SAN MIGUEL,UNIDAD DE CONSULTA EXTERNA,19.59678452,-99.23444343,4,0
Atizapán de Zaragoza,COL. ADOLFO LÓPEZ MATEOS,UNIDAD DE CONSULTA EXTERNA,19.58618405,-99.2650823,7,0
Atizapán de Zaragoza,HIGUERA,UNIDAD DE CONSULTA EXTERNA,19.57452498,-99.243759,7,0
Atizapán de Zaragoza,JURISDICCIÓN DE REGULACIÓN SANITARIA NO. 12 ATIZAPAN,ESTABLECIMIENTO DE APOYO,19.556827,99.24262,0,0
Atizapán de Zaragoza,JURISDICCIÓN SANITARIA X. A. DE ZARAGOZA,ESTABLECIMIENTO DE APOYO,19.5647625,-99.24278833,0,0
Atlacomulco,HOSPITAL GENERAL ATLACOMULCO,UNIDAD DE HOSPITALIZACION,19.788894,-99.882592,9,100
Atlacomulco,CEAPS SAN LORENZO TLACOTEPEC,UNIDAD DE CONSULTA EXTERNA,19.81929057,-99.91734189,5,4
Atlacomulco,CENTRO DE ATENCIÓN ESTOMATOLÓGICA ATLACOMULCO,UNIDAD DE CONSULTA EXTERNA,19.79814363,-99.87922502,8,0
Atlacomulco,MATERNIDAD ATLACOMULCO,UNIDAD DE CONSULTA EXTERNA,19.798059,-99.87983,10,15
Atlacomulco,BOBASHI DE GUADALUPE,UNIDAD DE CONSULTA EXTERNA,19.874122,-99.913335,1,0
Atlacomulco,BOMBATEVI EJIDO,UNIDAD DE CONSULTA EXTERNA,19.815842,-99.887165,1,0
Atlacomulco,CENTRO DE SALUD SAN JOSE TOXI,UNIDAD DE CONSULTA EXTERNA,19.866413,-99.937254,1,0
Atlacomulco,CHOSTO DE LOS JARROS,UNIDAD DE CONSULTA EXTERNA,19.864442,-99.903698,1,0
Atlacomulco,CUENDO,UNIDAD DE CONSULTA EXTERNA,19.800053,-99.951049,1,0
Atlacomulco,EL SALTO,UNIDAD DE CONSULTA EXTERNA,19.814681,-99.799602,1,0
Atlacomulco,MANTO DEL RIO,UNIDAD DE CONSULTA EXTERNA,19.84236873,-99.92668438,1,0
Atlacomulco,SAN BARTOLO LANZADOS,UNIDAD DE CONSULTA EXTERNA,19.866467,-99.89381635,1,0
Atlacomulco,SAN FELIPE PUEBLO NUEVO,UNIDAD DE CONSULTA EXTERNA,19.76779363,-99.75742322,1,0
Atlacomulco,SAN FRANCISCO CHALCHIHUAPAN,UNIDAD DE CONSULTA EXTERNA,19.77060298,-99.82102376,1,0
Atlacomulco,SAN JERONIMO DE LOS JARROS,UNIDAD DE CONSULTA EXTERNA,19.87867367,-99.92312289,1,0
Atlacomulco,SAN LUIS BORO,UNIDAD DE CONSULTA EXTERNA,19.812085,-99.854839,1,0
Atlacomulco,TIERRAS BLANCAS,UNIDAD DE CONSULTA EXTERNA,19.661315,-99.626356,1,0
Atlacomulco,SAN JOSÉ DEL TUNAL,UNIDAD DE CONSULTA EXTERNA,19.7897194,-99.83927888,2,0
Atlacomulco,SAN JUAN DE LOS JARROS,UNIDAD DE CONSULTA EXTERNA,19.86139148,-99.91548324,2,0
Atlacomulco,CAPA CENTRO NUEVA VIDA ATLACOMULCO,UNIDAD DE CONSULTA EXTERNA,19.81399,-99.89514,3,0
Atlacomulco,SAN ANTONIO ENCHISI,UNIDAD DE CONSULTA EXTERNA,19.75251638,-99.82775891,2,0
Atlacomulco,SAN PEDRO DEL ROSAL,UNIDAD DE CONSULTA EXTERNA,19.78126949,-99.80972362,2,0
Atlacomulco,SANTIAGO ACUTZILAPAN,UNIDAD DE CONSULTA EXTERNA,19.78712636,-99.76769376,3,0
Atlacomulco,CENTRO DE SALUD URBANO DR. ERNESTO GONZÁLEZ MERCADO,UNIDAD DE CONSULTA EXTERNA,19.79841619,-99.87993044,5,0
Atlacomulco,JURISDICCIÓN DE REGULACIÓN SANITARIA NO. 5 ATLACOMULCO,ESTABLECIMIENTO DE APOYO,19.7968,-99.8765,0,0
Atlacomulco,JURISDICCIÓN SANITARIA I ATLACOMULCO,ESTABLECIMIENTO DE APOYO,19.798896,-99.870228,0,0
Atlautla,CEAPS ATLAUTLA,UNIDAD DE CONSULTA EXTERNA,19.02797341,-98.78126544,6,4
Atlautla,SAN JUAN TEPECOCULCO,UNIDAD DE CONSULTA EXTERNA,18.98860022,-98.79123253,1,0
Atlautla,SAN ANDRÉS TLALAMAC,UNIDAD DE CONSULTA EXTERNA,18.962644,-98.814417,2,0
Atlautla,SAN JUAN TEHUIXTITLAN,UNIDAD DE CONSULTA EXTERNA,19.0506913,-98.76879048,3,0
Axapusco,HOSPITAL GENERAL DE AXAPUSCO,UNIDAD DE HOSPITALIZACION,19.733024,-98.769851,12,98
Axapusco,CEAPS AXAPUSCO MARIANO MATAMOROS BICENTENARIO,UNIDAD DE CONSULTA EXTERNA,19.730432,-98.757981,6,2
Axapusco,ATLA,UNIDAD DE CONSULTA EXTERNA,19.74922,-98.687622,2,0
Axapusco,XALA,UNIDAD DE CONSULTA EXTERNA,19.763664,-98.647652,2,0
Axapusco,U. MÓVIL ISEM AXAPUSCO,UNIDAD DE CONSULTA EXTERNA,19.73037,-98.7579491,0,0
Axapusco,CENTRO DE SALUD SANTO DOMINGO AZTACAMECA,UNIDAD DE CONSULTA EXTERNA,19.78338,-98.769131,3,0
Axapusco,JALTEPEC,UNIDAD DE CONSULTA EXTERNA,19.728297,-98.634154,3,0
Axapusco,SANTA MARÍA ACTIPAC,UNIDAD DE CONSULTA EXTERNA,19.855277,-98.746893,2,0
Axapusco,COORDINACIÓN MUNICIPAL NOPALTEPEC,ESTABLECIMIENTO DE APOYO,19.7829944,-98.7692055,0,0
Ayapango,MIHUACÁN,UNIDAD DE CONSULTA EXTERNA,19.109013,-98.808719,1,0
Ayapango,AYAPANGO,UNIDAD DE CONSULTA EXTERNA,19.126825,-98.800947,3,0
Calimaya,LA CONCEPCIÓN COATIPAC,UNIDAD DE CONSULTA EXTERNA,19.182556,-99.567296,1,0
Calimaya,CALIMAYA NORTE,UNIDAD DE CONSULTA EXTERNA,19.167693,-99.617549,1,0
Calimaya,SAN LORENZO CUAUHTENCO,UNIDAD DE CONSULTA EXTERNA,19.200101,-99.630442,1,0
Calimaya,GUADALUPE ZARAGOZA,UNIDAD DE CONSULTA EXTERNA,19.150813,-99.645952,3,0
Calimaya,SANTA MARÍA NATIVITAS,UNIDAD DE CONSULTA EXTERNA,19.21098,-99.626418,3,0
Calimaya,CALIMAYA SUR,UNIDAD DE CONSULTA EXTERNA,19.160908,-99.61563,4,0
Capulhuac,SANTA MARÍA COAXUSCO,UNIDAD DE CONSULTA EXTERNA,19.192591,-99.459518,1,0
Capulhuac,CEAPS CAPULHUAC DE MIRAFUENTES,UNIDAD DE CONSULTA EXTERNA,19.196602,-99.461468,9,4
Capulhuac,CAPA CENTRO NUEVA VIDA CAPULHUAC,UNIDAD DE CONSULTA EXTERNA,19.196531,-99.461254,4,0
Capulhuac,SAN MIGUEL ALMAYA,UNIDAD DE CONSULTA EXTERNA,19.206709,-99.443787,2,0
Capulhuac,SAN NICOLÁS TLAZALA,UNIDAD DE CONSULTA EXTERNA,19.227861,-99.466205,2,0
Coacalco de Berriozábal,COACALCO,UNIDAD DE CONSULTA EXTERNA,19.630174,-99.105177,5,0
Coacalco de Berriozábal,SAN RAFAEL,UNIDAD DE CONSULTA EXTERNA,19.649878,-99.082791,7,0
Coatepec Harinas,HOSPITAL RAMÓN LÓPEZ RAYÓN BICENTENARIO COATEPEC HARINAS,UNIDAD DE HOSPITALIZACION,18.924836,-99.766413,12,26
Coatepec Harinas,AGUA AMARGA,UNIDAD DE CONSULTA EXTERNA,18.933309,-99.753025,1,0
Coatepec Harinas,AGUA BENDITA,UNIDAD DE CONSULTA EXTERNA,18.985669,-99.854265,1,0
Coatepec Harinas,CHILTEPEC,UNIDAD DE CONSULTA EXTERNA,18.913719,-99.834016,2,0
Coatepec Harinas,COL. HIDALGO (SAN LUIS),UNIDAD DE CONSULTA EXTERNA,18.884424,-99.759184,1,0
Coatepec Harinas,IXTLÁHUACA DE VILLADA,UNIDAD DE CONSULTA EXTERNA,18.918548,-99.80801,1,0
Coatepec Harinas,LAS VUELTAS,UNIDAD DE CONSULTA EXTERNA,18.9020421,-99.8567443,1,0
Coatepec Harinas,LLANO GRANDE,UNIDAD DE CONSULTA EXTERNA,18.828622,-99.767004,2,0
Coatepec Harinas,MEYUCA,UNIDAD DE CONSULTA EXTERNA,18.851161,-99.781098,1,0
Coatepec Harinas,PLAN DE SAN FRANCISCO,UNIDAD DE CONSULTA EXTERNA,18.902087,-99.724331,1,0
Coatepec Harinas,ACUITLAPILCO,UNIDAD DE CONSULTA EXTERNA,18.904678,-99.787541,2,0
Coatepec Harinas,PIEDRAS ANCHAS,UNIDAD DE CONSULTA EXTERNA,18.979333,-99.780119,2,0
Coatepec Harinas,CARAVANA LAS JARAS,UNIDAD DE CONSULTA EXTERNA,18.923725,-99.768234,1,0
Cocotitlán,CEAPS COCOTITLÁN,UNIDAD DE CONSULTA EXTERNA,19.234595,-98.865245,6,4
Cocotitlán,SAN ANDRÉS METLA,UNIDAD DE CONSULTA EXTERNA,19.21909,-98.835786,2,0
Coyotepec,COYOTEPEC,UNIDAD DE CONSULTA EXTERNA,19.776797,-99.213343,4,0
Cuautitlán,H.G. JOSÉ VICENTE VILLADA,UNIDAD DE HOSPITALIZACION,19.6645,-99.1787,21,234
Cuautitlán,CENTRO DE ATENCIÓN ODONTOLÓGICA CUAUTITLÁN,UNIDAD DE CONSULTA EXTERNA,19.663798,-99.177954,1,0
Cuautitlán,MATERNIDAD CUAUTITLÁN,UNIDAD DE CONSULTA EXTERNA,19.718075,-99.156172,3,8
Cuautitlán,CAPA CENTRO NUEVA VIDA CUAUTITLAN,UNIDAD DE CONSULTA EXTERNA,19.669797,-99.153388,6,0
Cuautitlán,CISAME CUAUTITLÁN,UNIDAD DE CONSULTA EXTERNA,19.669979,-99.153356,4,0
Cuautitlán,UNIDAD DE ESPECIALIDAD MEDICA DETECCIÓN Y DIAGNÓSTICO DEL CANCER DE MAMA CUAUTITLÁN,UNIDAD DE CONSULTA EXTERNA,19.718146,-99.15577,3,0
Cuautitlán,CARAVANA TULTEPEC,UNIDAD DE CONSULTA EXTERNA,19.663549,-99.177869,2,0
Cuautitlán,U. MÓVIL ISEM CUAUTITLÁN E1,UNIDAD DE CONSULTA EXTERNA,19.663549,-99.177869,0,0
Cuautitlán,U. MÓVIL ISEM CUAUTITLÁN E3,UNIDAD DE CONSULTA EXTERNA,19.663549,-99.177869,0,0
Cuautitlán,U. MÓVIL ISEM CUAUTITLÁN E5,UNIDAD DE CONSULTA EXTERNA,19.663549,-99.177869,0,0
Cuautitlán,U. MÓVIL ISEM TULTITLÁN E1,UNIDAD DE CONSULTA EXTERNA,19.663549,-99.177869,0,0
Cuautitlán,CENTRO DE SALUD PARQUE SAN MATEO,UNIDAD DE CONSULTA EXTERNA,19.717674,-99.15603,7,0
Cuautitlán,NUEVA SANTA MARÍA CUAUTITLÁN,UNIDAD DE CONSULTA EXTERNA,19.667428,-99.180033,6,0
Cuautitlán,JURISDICCIÓN SANITARIA XI. CUAUTITLAN,ESTABLECIMIENTO DE APOYO,19.6674,-99.1801,0,0
Chalco,HOSPITAL MATERNO INFANTIL CHALCO JOSÉFA ORTÍZ DE DOMÍNGUEZ,UNIDAD DE HOSPITALIZACION,19.213963,-98.922724,8,91
Chalco,HOSPITAL GENERAL DE CHALCO,UNIDAD DE HOSPITALIZACION,19.268303,-98.894141,13,89
Chalco,CAPASITS CHALCO,UNIDAD DE CONSULTA EXTERNA,19.268128,-98.894267,4,0
Chalco,U. MÓVIL ISEM AGRARISTA,UNIDAD DE CONSULTA EXTERNA,19.274203,-98.892759,0,0
Chalco,U. MÓVIL ISEM BARRIO DE LA SANTA CRUZ,UNIDAD DE CONSULTA EXTERNA,19.263807,-98.911324,0,0
Chalco,U. MÓVIL ISEM SANTA ISABEL CHALMA,UNIDAD DE CONSULTA EXTERNA,19.274203,-98.892759,0,0
Chalco,U. MÓVIL ISEM SANTO TOMAS ATZINGO,UNIDAD DE CONSULTA EXTERNA,19.263807,-98.911324,0,0
Chalco,CANDELARIA TLAPALA,UNIDAD DE CONSULTA EXTERNA,19.237671,-98.849825,1,0
Chalco,SAN GREGORIO CUAUTZINGO,UNIDAD DE CONSULTA EXTERNA,19.263686,-98.858075,2,0
Chalco,SAN JUAN Y SAN PEDRO TEZOMPA,UNIDAD DE CONSULTA EXTERNA,19.205621,-98.960764,1,0
Chalco,SAN LUCAS AMALINALCO,UNIDAD DE CONSULTA EXTERNA,19.270284,-98.86367,1,0
Chalco,SAN MARCOS HUIXTOCO,UNIDAD DE CONSULTA EXTERNA,19.2953,-98.8656,1,0
Chalco,SAN MARTÍN XICO,UNIDAD DE CONSULTA EXTERNA,19.23588405,-98.91542548,1,0
Chalco,SAN MATEO HUITZILZINGO,UNIDAD DE CONSULTA EXTERNA,19.231226,-98.926201,2,0
Chalco,SAN MATEO TEZOQUIPAN,UNIDAD DE CONSULTA EXTERNA,19.225195,-98.815775,1,0
Chalco,SANTA MARÍA HUEXOCULCO,UNIDAD DE CONSULTA EXTERNA,19.256317,-98.814685,1,0
Chalco,SANTA CATARINA AYOTZINGO,UNIDAD DE CONSULTA EXTERNA,19.209589,-98.929659,2,0
Chalco,SAN MARTÍN CUAUTLALPAN,UNIDAD DE CONSULTA EXTERNA,19.277195,-98.832334,5,0
Chalco,CENTRO DE SALUD SAN LORENZO CHIMALPA,UNIDAD DE CONSULTA EXTERNA,19.234593,-98.920976,8,0
Chalco,EMILIANO ZAPATA,UNIDAD DE CONSULTA EXTERNA,19.274086,-98.892602,7,0
Chalco,JARDINES DE CHALCO,UNIDAD DE CONSULTA EXTERNA,19.263668,-98.91132,11,0
Chalco,JURISDICCIÓN DE REGULACIÓN SANITARIA NO. 10 CHALCO,ESTABLECIMIENTO DE APOYO,19.25717,-98.896564,0,0
Chalco,JURISDICCIÓN SANITARIA XVI. AMECAMECA,ESTABLECIMIENTO DE APOYO,19.2586879,-98.899535,0,0
Chapa de Mota,CEAPS CHAPA DE MOTA,UNIDAD DE CONSULTA EXTERNA,19.814332,-99.525163,6,5
Chapa de Mota,CENTRO DE SALUD EMILIANO ZAPATA,UNIDAD DE CONSULTA EXTERNA,19.878551,-99.589199,2,0
Chapa de Mota,CENTRO DE SALUD SAN FRANCISCO DE LAS TABLAS,UNIDAD DE CONSULTA EXTERNA,19.767094,-99.528882,1,0
Chapa de Mota,LA PALMA,UNIDAD DE CONSULTA EXTERNA,19.745829,-99.556786,1,0
Chapa de Mota,MACAVACA,UNIDAD DE CONSULTA EXTERNA,19.822646,-99.464046,1,0
Chapa de Mota,SAN GABRIEL,UNIDAD DE CONSULTA EXTERNA,19.892184,-99.628892,1,0
Chapa de Mota,LA LADERA,UNIDAD DE CONSULTA EXTERNA,19.801888,-99.565217,2,0
Chapa de Mota,DONGU,UNIDAD DE CONSULTA EXTERNA,19.855149,-99.585788,2,0
Chapa de Mota,SAN FELIPE COAMANGO,UNIDAD DE CONSULTA EXTERNA,19.856504,-99.611855,2,0
Chapa de Mota,SAN JUAN TUXTEPEC,UNIDAD DE CONSULTA EXTERNA,19.864127,-99.622396,3,0
Chapultepec,CEAPS SAN MIGUEL CHAPULTEPEC BICENTENARIO,UNIDAD DE CONSULTA EXTERNA,19.203447,-99.559143,7,5
Chiautla,CEAPS CHIAUTLA,UNIDAD DE CONSULTA EXTERNA,19.545773,-98.880564,5,3
Chiautla,SAN ANTONIO TEPETITLAN,UNIDAD DE CONSULTA EXTERNA,19.574432,-98.873078,1,0
Chiautla,NONOALCO,UNIDAD DE CONSULTA EXTERNA,19.553595,-98.868538,1,0
Chiautla,OCOPULCO,UNIDAD DE CONSULTA EXTERNA,19.589014,-98.89843,1,0
Chiautla,SAN ANDRÉS CHIAUTLA,UNIDAD DE CONSULTA EXTERNA,19.554807,-98.886705,1,0
Chiautla,SANTIAGO CHIMALPA,UNIDAD DE CONSULTA EXTERNA,19.568,-98.889303,1,0
Chiautla,JURISDICCIÓN SANITARIA XIX. TEXCOCO,ESTABLECIMIENTO DE APOYO,19.552209,-98.879858,0,0
Chicoloapan,C.S. ARA,UNIDAD DE CONSULTA EXTERNA,19.41803035,-98.88381001,2,0
Chicoloapan,C.S. BETA,UNIDAD DE CONSULTA EXTERNA,19.424984,-98.889552,2,0
Chicoloapan,FRANCISCO VILLA,UNIDAD DE CONSULTA EXTERNA,19.398218,-98.933502,1,0
Chicoloapan,VENUSTIANO CARRANZA,UNIDAD DE CONSULTA EXTERNA,19.40527799,-98.920387,1,0
Chicoloapan,COL.SANTA ROSA,UNIDAD DE CONSULTA EXTERNA,19.404737,-98.906634,2,0
Chicoloapan,EJERCITO DEL TRABAJO,UNIDAD DE CONSULTA EXTERNA,19.402425,-98.929258,2,0
Chicoloapan,SAN VICENTE CHICOLOAPAN,UNIDAD DE CONSULTA EXTERNA,19.4208,-98.9017,2,0
Chicoloapan,EMILIANO ZAPATA,UNIDAD DE CONSULTA EXTERNA,19.39785,-98.929523,6,0
Chiconcuac,HOSPITAL MUNICIPAL DE CHICONCUAC,UNIDAD DE HOSPITALIZACION,19.543561,-98.897241,8,35
Chiconcuac,CEAPS CHICONCUAC,UNIDAD DE CONSULTA EXTERNA,19.558145,-98.892647,6,3
Chimalhuacán,HOSPITAL MATERNO INFANTIL VICENTE GUERRERO CHIMALHUACÁN,UNIDAD DE HOSPITALIZACION,19.44222,-98.9726375,7,105
Chimalhuacán,H.G. CHIMALHUACÁN,UNIDAD DE HOSPITALIZACION,19.419179,-98.975415,20,131
Chimalhuacán,HOSPITAL GENERAL CHIMALHUACÁN SAN AGUSTÍN,UNIDAD DE HOSPITALIZACION,19.387162,-98.960229,7,70
Chimalhuacán,CEAPS ACUITLAPILCO,UNIDAD DE CONSULTA EXTERNA,19.43787,-98.931737,5,4
Chimalhuacán,CEAPS SANTA ELENA,UNIDAD DE CONSULTA EXTERNA,19.432469,-98.966697,7,2
Chimalhuacán,CEAPS SANTA MARÍA CHIMALHUACAN,UNIDAD DE CONSULTA EXTERNA,19.398615,-98.909023,7,4
Chimalhuacán,CAPA CENTRO NUEVA VIDA CHIMALHUACAN,UNIDAD DE CONSULTA EXTERNA,19.439417,-98.975286,4,0
Chimalhuacán,CISAME BARRIO TRANSPORTISTAS,UNIDAD DE CONSULTA EXTERNA,19.439624,-98.975282,8,0
Chimalhuacán,SORID BARRIO TRANSPORTISTAS,UNIDAD DE CONSULTA EXTERNA,19.439267,-98.975577,3,0
Chimalhuacán,U. MÓVIL ISEM SAN LORENZO 1,UNIDAD DE CONSULTA EXTERNA,19.40771,-98.982002,0,0
Chimalhuacán,LAS PALOMAS,UNIDAD DE CONSULTA EXTERNA,19.39734931,-98.97145358,4,0
Chimalhuacán,SAN AGUSTÍN ATLAPULCO,UNIDAD DE CONSULTA EXTERNA,19.388717,-98.960814,4,0
Chimalhuacán,BARRIO FUNDIDORES,UNIDAD DE CONSULTA EXTERNA,19.444808,-98.951775,7,0
Chimalhuacán,CHIMALHUACAN,UNIDAD DE CONSULTA EXTERNA,19.421286,-98.947639,6,0
Chimalhuacán,COLONIA BARRIO HERREROS,UNIDAD DE CONSULTA EXTERNA,19.434465,-98.942857,7,0
Chimalhuacán,COLONIA BARRIO PLATEROS,UNIDAD DE CONSULTA EXTERNA,19.427626,-98.977075,7,0
Chimalhuacán,SAN LORENZO,UNIDAD DE CONSULTA EXTERNA,19.407701,-98.982084,7,0
Donato Guerra,EL CAPULIN,UNIDAD DE CONSULTA EXTERNA,19.352859,-100.285038,1,0
Donato Guerra,SAN ANTONIO DE LA LAGUNA,UNIDAD DE CONSULTA EXTERNA,19.300754,-100.078418,1,0
Donato Guerra,SAN FRANCISCO MIHUALTEPEC EJIDO,UNIDAD DE CONSULTA EXTERNA,19.22997,-100.12638,1,0
Donato Guerra,SANTIAGO HUITLAPALTEPEC,UNIDAD DE CONSULTA EXTERNA,19.282684,-100.207756,1,0
Donato Guerra,SAN FRANCISCO MIHUALTEPEC POBLADO,UNIDAD DE CONSULTA EXTERNA,19.246785,-100.097371,2,0
Donato Guerra,SAN JUAN XOCONUSCO,UNIDAD DE CONSULTA EXTERNA,19.311427,-100.261215,2,0
Donato Guerra,SAN MARTÍN OBISPO,UNIDAD DE CONSULTA EXTERNA,19.319087,-100.074293,3,0
Donato Guerra,DONATO GUERRA,UNIDAD DE CONSULTA EXTERNA,19.310641,-100.143973,3,0
Donato Guerra,SAN AGUSTÍN LAS PALMAS,UNIDAD DE CONSULTA EXTERNA,19.3254,-100.150493,2,0
Donato Guerra,SAN SIMON DE LA LAGUNA,UNIDAD DE CONSULTA EXTERNA,19.288751,-100.081377,2,0
Ecatepec de Morelos,H.G. DR. JOSÉ MARÍA RODRÍGUEZ,UNIDAD DE HOSPITALIZACION,19.5144,-99.0382,14,192
Ecatepec de Morelos,HOSPITAL GENERAL LAS AMÉRICAS,UNIDAD DE HOSPITALIZACION,19.5936922,-99.0188783,13,193
Ecatepec de Morelos,CAPA CENTRO NUEVA VIDA CHICONAUTLA 3000,UNIDAD DE CONSULTA EXTERNA,19.64188,-98.985306,3,0
Ecatepec de Morelos,CAPA CENTRO NUEVA VIDA ECATEPEC CD. CUAUHTÉMOC,UNIDAD DE CONSULTA EXTERNA,19.6471,-98.9947,3,0
Ecatepec de Morelos,CAPA CENTRO NUEVA VIDA ECATEPEC CHAMIZAL,UNIDAD DE CONSULTA EXTERNA,19.5012,-99.0628,3,0
Ecatepec de Morelos,CAPA CENTRO NUEVA VIDA ECATEPEC HÉROES DE GRANADITAS,UNIDAD DE CONSULTA EXTERNA,19.4909,-99.0316,2,0
Ecatepec de Morelos,CAPA CENTRO NUEVA VIDA ECATEPEC RUIZ CORTINEZ,UNIDAD DE CONSULTA EXTERNA,19.6028,-99.0327,3,0
Ecatepec de Morelos,CAPA CENTRO NUEVA VIDA ECATEPEC SAN AGUSTIN,UNIDAD DE CONSULTA EXTERNA,19.5334,-99.0304,3,0
Ecatepec de Morelos,CAPA CENTRO NUEVA VIDA ECATEPEC SAN JUAN IXHUATEPEC,UNIDAD DE CONSULTA EXTERNA,19.5178,-99.0876,3,0
Ecatepec de Morelos,CAPASITS ECATEPEC,UNIDAD DE CONSULTA EXTERNA,19.5947,-99.0191,4,0
Ecatepec de Morelos,U. MOVIL RUIZ CORTINES 1,UNIDAD DE CONSULTA EXTERNA,19.602911,-99.032496,0,0
Ecatepec de Morelos,U. MOVIL SANTA MA. CHICONAUTLA 1,UNIDAD DE CONSULTA EXTERNA,19.634121,-99.000374,0,0
Ecatepec de Morelos,U. MÓVIL ISEM RUIZ CORTINES 5,UNIDAD DE CONSULTA EXTERNA,19.602911,-99.032496,0,0
Ecatepec de Morelos,U. MÓVIL ISEM AMPLIACIÓN TULPETLAC 1,UNIDAD DE CONSULTA EXTERNA,19.570713,-99.058548,0,0
Ecatepec de Morelos,U. MÓVIL ISEM AMPLIACIÓN TULPETLAC 2,UNIDAD DE CONSULTA EXTERNA,19.570713,-99.058548,0,0
Ecatepec de Morelos,U. MÓVIL ISEM CHAMIZAL 1,UNIDAD DE CONSULTA EXTERNA,19.49939,-99.055908,0,0
Ecatepec de Morelos,U. MÓVIL ISEM CIUDAD CUAUHTÉMOC 2,UNIDAD DE CONSULTA EXTERNA,19.645436,-98.994797,0,0
Ecatepec de Morelos,U. MÓVIL ISEM HANK GONZALEZ 2,UNIDAD DE CONSULTA EXTERNA,19.552744,-99.073354,0,0
Ecatepec de Morelos,U. MÓVIL ISEM HANK GONZALEZ 4,UNIDAD DE CONSULTA EXTERNA,19.552744,-99.073354,0,0
Ecatepec de Morelos,U. MÓVIL ISEM HEROES DE GRANADITAS,UNIDAD DE CONSULTA EXTERNA,19.490667,-99.031281,0,0
Ecatepec de Morelos,U. MÓVIL ISEM JARDINES DE MORELOS 3,UNIDAD DE CONSULTA EXTERNA,19.598495,-98.99826,0,0
Ecatepec de Morelos,U. MÓVIL ISEM RUIZ CORTINES 2,UNIDAD DE CONSULTA EXTERNA,19.602911,-99.032496,0,0
Ecatepec de Morelos,U. MÓVIL ISEM RUIZ CORTINES 3,UNIDAD DE CONSULTA EXTERNA,19.602911,-99.032496,0,0
Ecatepec de Morelos,U. MÓVIL ISEM RUIZ CORTINES 4,UNIDAD DE CONSULTA EXTERNA,19.602911,-99.032496,0,0
Ecatepec de Morelos,U. MÓVIL ISEM RUIZ CORTINES 6,UNIDAD DE CONSULTA EXTERNA,19.602911,-99.032496,0,0
Ecatepec de Morelos,U. MÓVIL ISEM RUIZ CORTINES 7,UNIDAD DE CONSULTA EXTERNA,19.602911,-99.032496,0,0
Ecatepec de Morelos,U. MÓVIL ISEM RUIZ CORTINES 9,UNIDAD DE CONSULTA EXTERNA,19.602911,-99.032496,0,0
Ecatepec de Morelos,U. MÓVIL ISEM SAN AGUSTÍN 1,UNIDAD DE CONSULTA EXTERNA,19.533002,-99.03014,0,0
Ecatepec de Morelos,U. MÓVIL ISEM SAN JUAN IXHUATEPEC 1,UNIDAD DE CONSULTA EXTERNA,19.517606,-99.087607,0,0
Ecatepec de Morelos,U. MÓVIL ISEM SAN JUAN IXHUATEPEC 2,UNIDAD DE CONSULTA EXTERNA,19.517606,-99.087607,0,0
Ecatepec de Morelos,U. MÓVIL ISEM STA. MA. CHICONAUTLA 2,UNIDAD DE CONSULTA EXTERNA,19.634121,-99.000374,0,0
Ecatepec de Morelos,TABLA DEL POZO,UNIDAD DE CONSULTA EXTERNA,19.54913,-99.086368,1,0
Ecatepec de Morelos,COL. TEJALPA,UNIDAD DE CONSULTA EXTERNA,19.5652,-99.0586,2,0
Ecatepec de Morelos,"CSU VISIÓN MUNDIAL, PLAN DE AYALA",UNIDAD DE CONSULTA EXTERNA,19.5657,-99.0696,3,0
Ecatepec de Morelos,MIGUEL HIDALGO,UNIDAD DE CONSULTA EXTERNA,19.5301,-99.0509,3,0
Ecatepec de Morelos,CENTRO DE SALUD CHICONAUTLA 3000,UNIDAD DE CONSULTA EXTERNA,19.642076,-98.985559,3,6
Ecatepec de Morelos,CHAMIZAL,UNIDAD DE CONSULTA EXTERNA,19.4992,-99.0565,7,0
Ecatepec de Morelos,CIUDAD CUAUHTÉMOC,UNIDAD DE CONSULTA EXTERNA,19.6458,-98.995,7,0
Ecatepec de Morelos,EMILIANO ZAPATA,UNIDAD DE CONSULTA EXTERNA,19.5197,-99.0403,7,0
Ecatepec de Morelos,HÉROES DE GRANADITAS,UNIDAD DE CONSULTA EXTERNA,19.4911,-99.0314,7,0
Ecatepec de Morelos,JARDINES DE SAN GABRIEL,UNIDAD DE CONSULTA EXTERNA,19.5187,-99.0567,7,0
Ecatepec de Morelos,JOSÉ MA.MORELOS Y PAVÓN,UNIDAD DE CONSULTA EXTERNA,19.5632,-99.0181,7,0
Ecatepec de Morelos,NUEVA ARAGON,UNIDAD DE CONSULTA EXTERNA,19.5039,-99.0171,7,0
Ecatepec de Morelos,RUÍZ CORTINES,UNIDAD DE CONSULTA EXTERNA,19.6031,-99.0329,7,0
Ecatepec de Morelos,SAN AGUSTÍN,UNIDAD DE CONSULTA EXTERNA,19.5328,-99.0304,7,0
Ecatepec de Morelos,SAN PEDRO XALOSTOC,UNIDAD DE CONSULTA EXTERNA,19.5363,-99.0819,7,0
Ecatepec de Morelos,SANTA CLARA,UNIDAD DE CONSULTA EXTERNA,19.540106,-99.067055,7,0
Ecatepec de Morelos,SANTA MARÍA CHICONAUTLA,UNIDAD DE CONSULTA EXTERNA,19.6342,-99.0007,7,0
Ecatepec de Morelos,SANTA MARÍA TULPETLAC,UNIDAD DE CONSULTA EXTERNA,19.5733,-99.0424,8,0
Ecatepec de Morelos,HANK GONZÁLEZ,UNIDAD DE CONSULTA EXTERNA,19.5524,-99.0734,8,0
Ecatepec de Morelos,SAN JUAN IXHUATEPEC,UNIDAD DE CONSULTA EXTERNA,19.5177,-99.0874,9,0
Ecatepec de Morelos,AMPLIACIÓN TULPETLAC,UNIDAD DE CONSULTA EXTERNA,19.5707,-99.0583,9,0
Ecatepec de Morelos,JARDINES DE MORELOS,UNIDAD DE CONSULTA EXTERNA,19.5986,-98.998,13,0
Ecatepec de Morelos,BANCO DE SANGRE REGIONAL ECATEPEC LAS AMÉRICAS,ESTABLECIMIENTO DE APOYO,19.597463,-99.019253,3,0
Ecatepec de Morelos,LABORATORIO CLINICO (REGIONAL),ESTABLECIMIENTO DE APOYO,19.578081,-99.039662,0,0
Ecatepec de Morelos,LABORATORIO JOSÉ MA. MORELOS,ESTABLECIMIENTO DE APOYO,19.5632,-99.0181,0,0
Ecatepec de Morelos,JURISDICCIÓN SANITARIA XVII. ECATEPEC,ESTABLECIMIENTO DE APOYO,19.5348669,-99.0393698,0,0
Ecatzingo,CEAPS ECATZINGO,UNIDAD DE CONSULTA EXTERNA,18.95748,-98.753703,6,4
Ecatzingo,TECOMAXUSCO,UNIDAD DE CONSULTA EXTERNA,18.981068,-98.762614,1,0
Ecatzingo,TLACOTOMPA,UNIDAD DE CONSULTA EXTERNA,18.94071,-98.790912,1,0
Huehuetoca,HOSPITAL MUNICIPAL HUEHUETOCA,UNIDAD DE HOSPITALIZACION,19.8287,-99.2308,10,29
Huehuetoca,SAN BUENAVENTURA (EJIDO DE JALPA),UNIDAD DE CONSULTA EXTERNA,19.821876,-99.325595,1,0
Huehuetoca,SAN MIGUEL DE LOS JAGUEYES,UNIDAD DE CONSULTA EXTERNA,19.83646,-99.271538,1,0
Huehuetoca,SAN BARTOLO,UNIDAD DE CONSULTA EXTERNA,19.833722,-99.1931,1,0
Huehuetoca,JUAN ADALMA BICENTENARIO SALITRILLO,UNIDAD DE CONSULTA EXTERNA,19.827554,-99.206936,3,0
Huehuetoca,SAN PEDRO XALPA,UNIDAD DE CONSULTA EXTERNA,19.818808,-99.18118,2,0
Huehuetoca,CENTRO DE SALUD SANTA TERESA,UNIDAD DE CONSULTA EXTERNA,19.842059,-99.23686,5,0
Huehuetoca,SALITRILLO,ESTABLECIMIENTO DE APOYO,19.83148,-99.207458,0,0
Hueypoxtla,HOSPITAL GENERAL HUEYPOXTLA HERMENEGILDO GALEANA BICENTENARIO,UNIDAD DE HOSPITALIZACION,19.919259,-99.069467,10,51
Hueypoxtla,TEZONTLALPAN DE ZAPATA,UNIDAD DE CONSULTA EXTERNA,20.021302,-98.99436,1,0
Hueypoxtla,HUEYPOXTLA,UNIDAD DE CONSULTA EXTERNA,19.91315,-99.083327,1,0
Hueypoxtla,SAN FRANCISCO ZACACALCO,UNIDAD DE CONSULTA EXTERNA,19.930751,-98.987031,2,0
Hueypoxtla,SAN MARCOS JILOTZINGO,UNIDAD DE CONSULTA EXTERNA,19.867211,-99.048277,2,0
Hueypoxtla,SANTA MARÍA AJOLOAPAN,UNIDAD DE CONSULTA EXTERNA,19.97741,-99.044599,3,0
Huixquilucan,HOSPITAL SANTOS DEGOLLADO BICENTENARIO,UNIDAD DE HOSPITALIZACION,19.359231,-99.353081,11,18
Huixquilucan,CEAPS PALO SOLO,UNIDAD DE CONSULTA EXTERNA,19.414631,-99.272134,8,6
Huixquilucan,MATERNIDAD HUIXQUILUCAN,UNIDAD DE CONSULTA EXTERNA,19.36184669,-99.34037686,6,10
Huixquilucan,PIEDRA GRANDE,UNIDAD DE CONSULTA EXTERNA,19.353068,-99.384582,1,0
Huixquilucan,UNIDAD DE ESPECIALIDAD MEDICA DETECCIÓN Y DIAGNÓSTICO DEL CANCER DE MAMA HUIXQUILUCAN,UNIDAD DE CONSULTA EXTERNA,19.361864,-99.339567,1,0
Huixquilucan,SANTA CRUZ AYOTUXCO,UNIDAD DE CONSULTA EXTERNA,19.378481,-99.371858,2,0
Huixquilucan,CENTRO DE SALUD HUIXQUILUCAN,UNIDAD DE CONSULTA EXTERNA,19.3618466,-99.3403768,6,0
Huixquilucan,DOS RÍOS,UNIDAD DE CONSULTA EXTERNA,19.371952,-99.343846,3,0
Huixquilucan,SAN CRISTÓBAL TEXCALUCAN,UNIDAD DE CONSULTA EXTERNA,19.404296,-99.333455,4,0
Huixquilucan,SAN JUAN YAUTEPEC,UNIDAD DE CONSULTA EXTERNA,19.343934,-99.344353,3,0
Huixquilucan,SANTIAGO YANCUITLALPAN,UNIDAD DE CONSULTA EXTERNA,19.385775,-99.302521,3,0
Huixquilucan,SAN FERNANDO,UNIDAD DE CONSULTA EXTERNA,19.388899,-99.283059,7,0
Isidro Fabela,CEAPS TLAZALA,UNIDAD DE CONSULTA EXTERNA,19.560869,-99.4179085,6,3
Isidro Fabela,TLAZALA DE FABELA,UNIDAD DE CONSULTA EXTERNA,19.55270806,-99.41883,4,0
Ixtapaluca,HOSPITAL REGIONAL DE ALTA ESPECIALIDAD IXTAPALUCA,UNIDAD DE HOSPITALIZACION,19.3189436,-98.8557364,49,391
Ixtapaluca,ZOQUIAPAN DR. PEDRO LÓPEZ,UNIDAD DE HOSPITALIZACION,19.319448,-98.852671,19,80
Ixtapaluca,HOSPITAL MUNICIPAL IXTAPALUCA LEONA VICARIO BICENTENARIO,UNIDAD DE HOSPITALIZACION,19.306516,-98.85946,7,28
Ixtapaluca,H. ZOQUIAPAN GRANJA LA SALUD,UNIDAD DE HOSPITALIZACION,19.316974,-98.855197,36,161
Ixtapaluca,CAPA CENTRO NUEVA VIDA IXTAPALUCA ZOQUIAPAN,UNIDAD DE CONSULTA EXTERNA,19.319649,-98.852135,4,0
Ixtapaluca,CAPA CENTRO NUEVA VIDA IXTAPALUCA ALFREDO DEL MAZO,UNIDAD DE CONSULTA EXTERNA,19.296169,-98.906659,2,0
Ixtapaluca,CENTRO INTEGRAL DE SALUD MENTAL IXTAPALUCA,UNIDAD DE CONSULTA EXTERNA,19.319995,-98.851981,6,0
Ixtapaluca,UNEME ENFERMEDADES CRÓNICAS ZOQUIAPAN IXTAPALUCA,UNIDAD DE CONSULTA EXTERNA,19.319833,-98.852139,3,0
Ixtapaluca,U. MÓVIL ISEM WENCESLAO,UNIDAD DE CONSULTA EXTERNA,19.3066,-98.9103,0,0
Ixtapaluca,ALFREDO DEL MAZO,UNIDAD DE CONSULTA EXTERNA,19.296204,-98.906671,1,0
Ixtapaluca,COATEPEC,UNIDAD DE CONSULTA EXTERNA,19.384747,-98.846888,1,0
Ixtapaluca,GENERAL MANUEL ÁVILA CAMACHO,UNIDAD DE CONSULTA EXTERNA,19.32472574,-98.76123813,1,0
Ixtapaluca,LOMA BONITA,UNIDAD DE CONSULTA EXTERNA,19.315005,-98.92448,1,0
Ixtapaluca,RÍO FRÍO DE JUÁREZ,UNIDAD DE CONSULTA EXTERNA,19.35266657,-98.67330995,1,0
Ixtapaluca,CENTRO DE SALUD LOS HÉROES,UNIDAD DE CONSULTA EXTERNA,19.33143,-98.87715,3,0
Ixtapaluca,CENTRO DE SALUD LUIS CÓRDOVA,UNIDAD DE CONSULTA EXTERNA,19.33593,-98.92653,3,0
Ixtapaluca,CENTRO DE SALUD SANTA BÁRBARA,UNIDAD DE CONSULTA EXTERNA,19.295252,-98.89601,3,0
Ixtapaluca,CITLALMINA,UNIDAD DE CONSULTA EXTERNA,19.326504,-98.941193,4,0
Ixtapaluca,COLONIA AYOTLA,UNIDAD DE CONSULTA EXTERNA,19.31121676,-98.93093613,2,0
Ixtapaluca,COLONIA CHOCOLINES,UNIDAD DE CONSULTA EXTERNA,19.329043,-98.896102,2,0
Ixtapaluca,COLONIA TEJOLOTE,UNIDAD DE CONSULTA EXTERNA,19.319452,-98.912201,3,0
Ixtapaluca,COLONIA VALLE VERDE,UNIDAD DE CONSULTA EXTERNA,19.310087,-98.914563,2,0
Ixtapaluca,EL MOLINITO,UNIDAD DE CONSULTA EXTERNA,19.301405,-98.92255,2,0
Ixtapaluca,CENTRO DE SALUD MELCHOR OCAMPO,UNIDAD DE CONSULTA EXTERNA,19.333639,-98.91225,4,0
Ixtapaluca,SAN FRANCISCO ACUAUTLA,UNIDAD DE CONSULTA EXTERNA,19.34744827,-98.85425714,4,0
Ixtapaluca,IXTAPALUCA,UNIDAD DE CONSULTA EXTERNA,19.317149,-98.888589,4,0
Ixtapaluca,COLONIA SANTA CRUZ TLAPACOYA,UNIDAD DE CONSULTA EXTERNA,19.306654,-98.910137,6,0
Ixtapaluca,CENTRO DE SALUD CUATRO VIENTOS,UNIDAD DE CONSULTA EXTERNA,19.29710417,-98.83944685,7,0
Ixtapan de la Sal,HOSPITAL GENERAL IXTAPAN DE LA SAL,UNIDAD DE HOSPITALIZACION,18.81888,-99.668328,9,56
Ixtapan de la Sal,AHUACATITLAN,UNIDAD DE CONSULTA EXTERNA,18.900943,-99.710352,1,0
Ixtapan de la Sal,SAN MIGUEL LADERAS,UNIDAD DE CONSULTA EXTERNA,18.883732,-99.69795,1,0
Ixtapan de la Sal,UNIÓN RIVA PALACIO,UNIDAD DE CONSULTA EXTERNA,18.827095,-99.819388,1,0
Ixtapan de la Sal,CENTRO DE SALUD EL SALITRE,UNIDAD DE CONSULTA EXTERNA,18.818252,-99.667609,3,0
Ixtapan de la Sal,LLANO DE LA UNIÓN,UNIDAD DE CONSULTA EXTERNA,18.866268,-99.640556,2,0
Ixtapan de la Sal,SAN ALEJO,UNIDAD DE CONSULTA EXTERNA,18.835574,-99.725468,2,0
Ixtapan de la Sal,CARAVANA TECOMETEPEC,UNIDAD DE CONSULTA EXTERNA,18.818437,-99.667573,1,0
Ixtapan de la Sal,C.S. IXTAPAN DE LA SAL,UNIDAD DE CONSULTA EXTERNA,18.844545,-99.680975,7,0
Ixtapan de la Sal,COMISIÓN DE CONCILIACIÓN Y ARBITRAJE MÉDICO DEL ESTADO DE MÉXICO (DELEGACIÓN IXTAPAN DE LA SAL),ESTABLECIMIENTO DE APOYO,18.843574,-99.682065,0,0
Ixtapan del Oro,CEAPS IXTAPAN DEL ORO,UNIDAD DE CONSULTA EXTERNA,19.261312,-100.262242,6,2
Ixtapan del Oro,EL CHILAR,UNIDAD DE CONSULTA EXTERNA,19.248681,-100.295713,1,0
Ixtapan del Oro,MIAHUATLAN DE HIDALGO,UNIDAD DE CONSULTA EXTERNA,19.301225,-100.293177,1,0
Ixtapan del Oro,TUTUAPAN,UNIDAD DE CONSULTA EXTERNA,19.23746,-100.26767,1,0
Ixtlahuaca,HOSPITAL GENERAL IXTLAHUACA VALENTIN GÓMEZ FARÍAS,UNIDAD DE HOSPITALIZACION,19.569687,-99.756274,9,51
Ixtlahuaca,SAN PEDRO DE LOS BAÑOS III,UNIDAD DE CONSULTA EXTERNA,19.652377,-99.833353,1,0
Ixtlahuaca,C.S. SAN FRANCISCO IXTLAHUACA,UNIDAD DE CONSULTA EXTERNA,19.511384,-99.788214,2,0
Ixtlahuaca,C.S. SAN IGNACIO DEL PEDREGAL,UNIDAD DE CONSULTA EXTERNA,19.606326,-99.853456,2,0
Ixtlahuaca,CENTRO DE SALUD LA CONCEPCIÓN ENYEGE,UNIDAD DE CONSULTA EXTERNA,19.565314,-99.841533,1,0
Ixtlahuaca,CENTRO DE SALUD RINCÓN DE LOS PERALES,UNIDAD DE CONSULTA EXTERNA,19.553172,-99.820441,2,0
Ixtlahuaca,CENTRO DE SALUD SAN MIGUEL ENYEGE,UNIDAD DE CONSULTA EXTERNA,19.578049,-99.852652,1,0
Ixtlahuaca,GUADALUPE DEL RÍO,UNIDAD DE CONSULTA EXTERNA,19.713981,-99.892353,1,0
Ixtlahuaca,JALPA DE DOLORES,UNIDAD DE CONSULTA EXTERNA,19.651431,-99.871038,1,0
Ixtlahuaca,JALPA DE LOS BAÑOS,UNIDAD DE CONSULTA EXTERNA,19.677832,-99.869752,1,0
Ixtlahuaca,LA CONCEPCIÓN DE LOS BAÑOS III,UNIDAD DE CONSULTA EXTERNA,19.665607,-99.887443,1,0
Ixtlahuaca,LA GUADALUPANA,UNIDAD DE CONSULTA EXTERNA,19.561304,-99.895195,1,0
Ixtlahuaca,SAN FRANCISCO DEL RÍO,UNIDAD DE CONSULTA EXTERNA,19.693273,-99.895195,1,0
Ixtlahuaca,SAN ILDELFONSO PROFESORA ELDA GÓMEZ LUGO,UNIDAD DE CONSULTA EXTERNA,19.561606,-99.787513,1,0
Ixtlahuaca,SAN ISIDRO BOXIPÉ,UNIDAD DE CONSULTA EXTERNA,19.603645,-99.893097,1,0
Ixtlahuaca,SAN JOAQUÍN LA CABECERA,UNIDAD DE CONSULTA EXTERNA,19.559127,-99.747923,1,0
Ixtlahuaca,SAN PABLO DE LOS REMEDIOS,UNIDAD DE CONSULTA EXTERNA,19.632657,-99.839434,1,0
Ixtlahuaca,SAN ANTONIO BONIXI,UNIDAD DE CONSULTA EXTERNA,19.498804,-99.714299,2,0
Ixtlahuaca,SAN FRANCISCO DE GUZMAN,UNIDAD DE CONSULTA EXTERNA,19.621394,-99.774484,2,0
Ixtlahuaca,SAN JOAQUÍN EL JUNCO PROFESORA INÉS ÁNGELES SALAZAR,UNIDAD DE CONSULTA EXTERNA,19.55909,-99.774734,3,0
Ixtlahuaca,SAN MATEO IXTLÁHUACA,UNIDAD DE CONSULTA EXTERNA,19.606958,-99.800983,2,0
Ixtlahuaca,SAN ANDRÉS DEL PEDREGAL,UNIDAD DE CONSULTA EXTERNA,19.577916,-99.86464,3,0
Ixtlahuaca,SAN LORENZO TOXICO,UNIDAD DE CONSULTA EXTERNA,19.509389,-99.762756,3,0
Ixtlahuaca,EMILIANO ZAPATA III,UNIDAD DE CONSULTA EXTERNA,19.564122,-99.808345,2,0
Ixtlahuaca,SAN JERONIMO IXTAPANTONGO,UNIDAD DE CONSULTA EXTERNA,19.538109,-99.767402,1,0
Ixtlahuaca,SANTA ANA LA LADERA,UNIDAD DE CONSULTA EXTERNA,19.601727,-99.87796,1,0
Ixtlahuaca,GUADALUPE CACHI,UNIDAD DE CONSULTA EXTERNA,19.589333,-99.820084,3,0
Ixtlahuaca,SAN CRISTÓBAL DE LOS BAÑOS,UNIDAD DE CONSULTA EXTERNA,19.700953,-99.877124,2,0
Ixtlahuaca,SAN PEDRO BARRIO,UNIDAD DE CONSULTA EXTERNA,19.569444,-99.765245,3,0
Ixtlahuaca,SAN PEDRO DE LOS BAÑOS I,UNIDAD DE CONSULTA EXTERNA,19.678265,-99.844541,2,0
Ixtlahuaca,SANTA MARÍA DEL LLANO,UNIDAD DE CONSULTA EXTERNA,19.639498,-99.727666,2,0
Ixtlahuaca,EMILIANO ZAPATA,UNIDAD DE CONSULTA EXTERNA,19.582358,-99.798754,4,0
Ixtlahuaca,SAN BARTOLO DEL LLANO,UNIDAD DE CONSULTA EXTERNA,19.591714,-99.743576,4,0
Ixtlahuaca,SAN PEDRO DE LOS BAÑOS II,UNIDAD DE CONSULTA EXTERNA,19.673286,-99.831516,4,0
Ixtlahuaca,SANTA ANA IXTLAHUACA,UNIDAD DE CONSULTA EXTERNA,19.582696,-99.887782,3,0
Ixtlahuaca,SANTO DOMINGO DE GUZMÁN,UNIDAD DE CONSULTA EXTERNA,19.592469,-99.778714,4,0
Ixtlahuaca,CONCEPCIÓN LOS BAÑOS,UNIDAD DE CONSULTA EXTERNA,19.680213,-99.859384,5,0
Ixtlahuaca,JURISDICCIÓN SANITARIA II. IXTLÁHUACA,ESTABLECIMIENTO DE APOYO,19.565977,-99.762391,0,0
Xalatlaco,HOSPITAL MUNICIPAL XALATLACO MARIANO MATAMOROS,UNIDAD DE HOSPITALIZACION,19.172453,-99.418441,6,25
Xalatlaco,EL POTRERO,UNIDAD DE CONSULTA EXTERNA,19.186192,-99.40036,1,0
Xalatlaco,SANTA FE MEZAPA,UNIDAD DE CONSULTA EXTERNA,19.164303,-99.451321,1,0
Xalatlaco,SAN JUAN TOMASQUILLO,UNIDAD DE CONSULTA EXTERNA,19.171609,-99.40257,3,0
Xalatlaco,XALATLACO,UNIDAD DE CONSULTA EXTERNA,19.185813,-99.415525,5,0
Jaltenco,CEAPS ALBORADA JALTENCO,UNIDAD DE CONSULTA EXTERNA,19.658641,-99.066545,5,4
Jaltenco,CEAPS JALTENCO,UNIDAD DE CONSULTA EXTERNA,19.749701,-99.092727,7,0
Jilotepec,H.G. JILOTEPEC,UNIDAD DE HOSPITALIZACION,19.954759,-99.547046,9,56
Jilotepec,CENTRO DE SALUD BUENAVISTA,UNIDAD DE CONSULTA EXTERNA,19.992968,-99.577294,1,0
Jilotepec,CENTRO DE SALUD TEUPAN,UNIDAD DE CONSULTA EXTERNA,19.941074,-99.696441,1,0
Jilotepec,EL HUIZACHE,UNIDAD DE CONSULTA EXTERNA,19.94783,-99.489801,1,0
Jilotepec,EL ROSAL,UNIDAD DE CONSULTA EXTERNA,20.0985,-99.6837,1,0
Jilotepec,LA COMUNIDAD,UNIDAD DE CONSULTA EXTERNA,20.012841,-99.588378,1,0
Jilotepec,SAN LORENZO NENAMICOYAN,UNIDAD DE CONSULTA EXTERNA,20.13749,-99.644386,1,0
Jilotepec,SAN LORENZO OCTEYUCO,UNIDAD DE CONSULTA EXTERNA,19.961226,-99.600291,1,0
Jilotepec,SAN LORENZO OCTEYUCO (EJIDO),UNIDAD DE CONSULTA EXTERNA,19.932433,-99.592958,1,0
Jilotepec,SAN MIGUEL DE LA VICTORIA,UNIDAD DE CONSULTA EXTERNA,20.067394,-99.593793,1,0
Jilotepec,XHIMOJAY,UNIDAD DE CONSULTA EXTERNA,19.905727,-99.636647,1,0
Jilotepec,ALDAMA,UNIDAD DE CONSULTA EXTERNA,19.991619,-99.668696,2,0
Jilotepec,C.S. AGUA ESCONDIDA,UNIDAD DE CONSULTA EXTERNA,19.980635,-99.576744,2,0
Jilotepec,DOXHICHO,UNIDAD DE CONSULTA EXTERNA,19.905759,-99.557477,2,0
Jilotepec,LAS HUERTAS,UNIDAD DE CONSULTA EXTERNA,19.973114,-99.556908,2,0
Jilotepec,SAN JUAN ACAZUCHITLAN,UNIDAD DE CONSULTA EXTERNA,20.146945,-99.597085,3,0
Jilotepec,SAN MARTÍN TUCHICULTLAPILCO,UNIDAD DE CONSULTA EXTERNA,20.093896,-99.648355,2,0
Jilotepec,SANTIAGO OXTHOC,UNIDAD DE CONSULTA EXTERNA,20.122985,-99.547472,2,0
Jilotepec,CALPULALPAN,UNIDAD DE CONSULTA EXTERNA,20.05837,-99.63404,4,0
Jilotepec,CENTRO DE SALUD XHIXHATA,UNIDAD DE CONSULTA EXTERNA,19.964577,-99.539925,7,0
Jilotepec,CANALEJAS,UNIDAD DE CONSULTA EXTERNA,19.978463,-99.606012,4,0
Jilotepec,CENTRO DE SALUD JILOTEPEC,UNIDAD DE CONSULTA EXTERNA,19.951905,-99.531056,7,0
Jilotepec,JURISDICCIÓN DE REGULACION SANITARIA,ESTABLECIMIENTO DE APOYO,19.960891,-99.5324,0,0
Jilotepec,JURISDICCIÓN SANITARIA III. JILOTEPEC,ESTABLECIMIENTO DE APOYO,19.950209,-99.532615,0,0
Jilotepec,OFICINAS DE LAS COORDINACIONES MUNICIPALES DE SALUD JILOTEPEC NORTE Y SOYANIQUILPAN-POLOTITLAN,ESTABLECIMIENTO DE APOYO,19.951785,-99.530639,0,0
Jilotzingo,CEAPS SAN LUIS AYUCA,UNIDAD DE CONSULTA EXTERNA,19.49605,-99.3536,6,4
Jilotzingo,STA ANA JILOTZINGO,UNIDAD DE CONSULTA EXTERNA,19.541,-99.39474458,1,0
Jilotzingo,CENTRO DE SALUD SANTA MARÍA MAZATLA,UNIDAD DE CONSULTA EXTERNA,19.5194,-99.3784,3,0
Jiquipilco,HOSPITAL MUNICIPAL HERMENEGILDO GALEANA JIQUIPILCO,UNIDAD DE HOSPITALIZACION,19.568048,-99.630538,7,34
Jiquipilco,BUENOS AIRES,UNIDAD DE CONSULTA EXTERNA,19.617109,-99.668108,1,0
Jiquipilco,EJIDO LLANO GRANDE,UNIDAD DE CONSULTA EXTERNA,19.572315,-99.664641,1,0
Jiquipilco,LOMA HIDALGO,UNIDAD DE CONSULTA EXTERNA,19.595959,-99.648429,1,0
Jiquipilco,MANZANA QUINTA,UNIDAD DE CONSULTA EXTERNA,19.53896,-99.601613,1,0
Jiquipilco,MOXTEJE,UNIDAD DE CONSULTA EXTERNA,19.570177,-99.632748,1,0
Jiquipilco,PORTEZUELOS,UNIDAD DE CONSULTA EXTERNA,19.528253,-99.65742,1,0
Jiquipilco,SAN ANTONIO NIXINÍ,UNIDAD DE CONSULTA EXTERNA,19.672233,-99.678183,1,0
Jiquipilco,SAN JOSÉ DEL SITIO,UNIDAD DE CONSULTA EXTERNA,19.603724,-99.670408,1,0
Jiquipilco,SAN MIGUEL YUXTEPEC,UNIDAD DE CONSULTA EXTERNA,19.540268,-99.712752,1,0
Jiquipilco,EJIDO LOMA DE MALACOTA,UNIDAD DE CONSULTA EXTERNA,19.658063,-99.669254,2,0
Jiquipilco,MANZANA SEXTA,UNIDAD DE CONSULTA EXTERNA,19.532301,-99.591643,2,0
Jiquipilco,SAN BARTOLO OXTOTITLÁN,UNIDAD DE CONSULTA EXTERNA,19.621753,-99.616044,2,0
Jiquipilco,SANTA MARÍA NATIVITAS,UNIDAD DE CONSULTA EXTERNA,19.581393,-99.609189,2,0
Jiquipilco,SAN FELIPE SANTIAGO,UNIDAD DE CONSULTA EXTERNA,19.607942,-99.652985,2,0
Jiquipilco,JIQUIPILCO,UNIDAD DE CONSULTA EXTERNA,19.560895,-99.607081,4,0
Jiquipilco,SANTA CRUZ TEPEXPAN,UNIDAD DE CONSULTA EXTERNA,19.569444,-99.703524,3,0
Jiquipilco,U. MÓVIL ISEM RANCHO ALEGRE,ESTABLECIMIENTO DE APOYO,19.567168,-99.630922,0,0
Jocotitlán,CEAPS JOCOTITLAN DR. ADRIÁN CORREA CEDILLO,UNIDAD DE CONSULTA EXTERNA,19.700418,-99.790314,7,6
Jocotitlán,HUEMETLA,UNIDAD DE CONSULTA EXTERNA,19.715016,-99.737137,1,0
Jocotitlán,MAVORO,UNIDAD DE CONSULTA EXTERNA,19.704944,-99.822165,1,0
Jocotitlán,PROVIDENCIA,UNIDAD DE CONSULTA EXTERNA,19.698757,-99.750893,1,0
Jocotitlán,SAN FRANCISCO CHEJE,UNIDAD DE CONSULTA EXTERNA,19.677312,-99.748185,1,0
Jocotitlán,SANTA MARÍA ENDARE,UNIDAD DE CONSULTA EXTERNA,19.725945,-99.816117,1,0
Jocotitlán,TIACAQUE,UNIDAD DE CONSULTA EXTERNA,19.671203,-99.712475,1,0
Jocotitlán,SANTIAGO CASANDEJE,UNIDAD DE CONSULTA EXTERNA,19.78642,-99.971081,2,0
Jocotitlán,BARRIO LA LUZ,UNIDAD DE CONSULTA EXTERNA,19.715226,-99.714159,1,0
Jocotitlán,CENTRO DE SALUD SANTA MARÍA CITENDEJE,UNIDAD DE CONSULTA EXTERNA,19.78227,-99.92882,2,0
Jocotitlán,JOCOTITLÁN,UNIDAD DE CONSULTA EXTERNA,19.705509,-99.794178,3,0
Jocotitlán,SAN JUAN COAJOMULCO,UNIDAD DE CONSULTA EXTERNA,19.753702,-99.968257,2,0
Jocotitlán,SAN MIGUEL TENOCHTITLAN,UNIDAD DE CONSULTA EXTERNA,19.752219,-99.921155,2,0
Jocotitlán,SANTIAGO YECHE,UNIDAD DE CONSULTA EXTERNA,19.702775,-99.701203,2,0
Jocotitlán,CENTRO DE SALUD LOS REYES,UNIDAD DE CONSULTA EXTERNA,19.674965,-99.761181,4,0
Joquicingo,CEAPS JOQUICINGO IGNACIO PÉREZ BICENTENARIO,UNIDAD DE CONSULTA EXTERNA,19.049917,-99.532433,7,4
Joquicingo,EL GUARDA DE GUERRERO,UNIDAD DE CONSULTA EXTERNA,19.023299,-99.479312,1,0
Joquicingo,MAXTLECA DE GALEANA,UNIDAD DE CONSULTA EXTERNA,19.027657,-99.55645,1,0
Joquicingo,SAN MIGUEL OCAMPO,UNIDAD DE CONSULTA EXTERNA,19.100576,-99.530302,1,0
Joquicingo,CENTRO DE SALUD TECHUCHULCO DE ALLENDE,UNIDAD DE CONSULTA EXTERNA,19.112823,-99.523972,4,0
Juchitepec,CEAPS JUCHITEPEC IGNACIO LÓPEZ RAYÓN BICENTENARIO,UNIDAD DE CONSULTA EXTERNA,19.101605,-98.886963,6,4
Juchitepec,SAN MATIAS CUIJINGO,UNIDAD DE CONSULTA EXTERNA,19.0822,-98.8494,3,0
Lerma,HOSPITAL MUNICIPAL LERMA,UNIDAD DE HOSPITALIZACION,19.326935,-99.476313,10,42
Lerma,CEAPS COLONIA GUADALUPE VICTORIA HUITZIZILAPAN,UNIDAD DE CONSULTA EXTERNA,19.401237,-99.452522,7,4
Lerma,CEAPS IGNACIO ALLENDE,UNIDAD DE CONSULTA EXTERNA,19.365511,-99.492655,6,4
Lerma,SAN PEDRO HUITZIZILAPAN,UNIDAD DE CONSULTA EXTERNA,19.40444315,-99.47603299,1,0
Lerma,ZACAMULPA HUITZIZILAPAN,UNIDAD DE CONSULTA EXTERNA,19.39352647,-99.44836107,2,0
Lerma,CENTRO DE SALUD SANTA CATARINA,UNIDAD DE CONSULTA EXTERNA,19.398439,-99.490237,3,0
Lerma,COL.REFORMA TLALMIMILOLPAN,UNIDAD DE CONSULTA EXTERNA,19.38953405,-99.4837555,2,0
Lerma,SAN LORENZO HUITZIZILAPAN,UNIDAD DE CONSULTA EXTERNA,19.40125297,-99.45248899,2,0
Lerma,COL. ÁLVARO OBREGÓN,UNIDAD DE CONSULTA EXTERNA,19.3786265,-99.49599442,1,0
Lerma,SANTIAGO ANALCO,UNIDAD DE CONSULTA EXTERNA,19.33177973,-99.44754122,1,0
Lerma,SAN MIGUEL AMEYALCO,UNIDAD DE CONSULTA EXTERNA,19.30346575,-99.45877877,2,0
Lerma,SAN NICOLÁS PERALTA,UNIDAD DE CONSULTA EXTERNA,19.35808208,-99.4849339,2,0
Lerma,SN.FRANCISCO XOCHICUAUTLA,UNIDAD DE CONSULTA EXTERNA,19.36798391,-99.44956807,2,0
Lerma,LERMA DE VILLADA,UNIDAD DE CONSULTA EXTERNA,19.285856,-99.514307,4,0
Lerma,SAN PEDRO TULTEPEC,UNIDAD DE CONSULTA EXTERNA,19.26675178,-99.51316415,4,0
Lerma,SANTA MARÍA ATARASQUILLO,UNIDAD DE CONSULTA EXTERNA,19.32613376,-99.46008435,3,0
Lerma,COMISIÓN DE CONCILIACIÓN Y ARBITRAJE MÉDICO DEL ESTADO DE MÉXICO (DELEGACIÓN TEXCOCO),ESTABLECIMIENTO DE APOYO,19.506315,-98.889357,0,0
Lerma,JURISDICCIÓN SANITARIA VI. XONACATLÁN,ESTABLECIMIENTO DE APOYO,19.288343,-99.510255,0,0
Malinalco,HOSPITAL MUNICIPAL MALINALCO PEDRO ASCENCIO DE ALQUISIRAS,UNIDAD DE HOSPITALIZACION,18.947174,-99.491534,9,28
Malinalco,NOXTEPEC DE ZARAGOZA,UNIDAD DE CONSULTA EXTERNA,18.810979,-99.48286,1,0
Malinalco,EL PLATANAR,UNIDAD DE CONSULTA EXTERNA,18.82775,-99.456101,1,0
Malinalco,PACHUQUILLA II,UNIDAD DE CONSULTA EXTERNA,18.892977,-99.546035,2,0
Malinalco,SN SIMON EL ALTO,UNIDAD DE CONSULTA EXTERNA,18.995559,-99.504512,1,0
Malinalco,CHALMA,UNIDAD DE CONSULTA EXTERNA,18.927006,-99.440445,3,0
Malinalco,SN ANDRÉS NICOLÁS BRAVO,UNIDAD DE CONSULTA EXTERNA,18.766986,-99.465178,3,0
Melchor Ocampo,CEAPS MELCHOR OCAMPO BICENTENARIO,UNIDAD DE CONSULTA EXTERNA,19.700505,-99.140523,6,2
Melchor Ocampo,VISITACION 1,UNIDAD DE CONSULTA EXTERNA,19.716049,-99.13765,4,0
Melchor Ocampo,CENTRO DE SALUD EL MIRADOR,UNIDAD DE CONSULTA EXTERNA,19.708789,-99.127826,6,0
Melchor Ocampo,CENTRO DE SALUD MELCHOR OCAMPO,UNIDAD DE CONSULTA EXTERNA,19.715389,-99.120296,4,0
Metepec,CEAPS SAN GASPAR TLALHUELILPAN,UNIDAD DE CONSULTA EXTERNA,19.244857,-99.552539,9,8
Metepec,CARAVANA TOLUCA EMBARCADERO,UNIDAD DE CONSULTA EXTERNA,19.249858,-99.57404,1,0
Metepec,CENTRO DE SALUD DE SANTA CRUZ OCOTITLÁN,UNIDAD DE CONSULTA EXTERNA,19.236864,-99.631128,3,0
Metepec,LA MAGDALENA OCOTITLAN,UNIDAD DE CONSULTA EXTERNA,19.235804,-99.621742,2,0
Metepec,SAN BARTOLOME TLALTELULCO,UNIDAD DE CONSULTA EXTERNA,19.226672,-99.631945,3,0
Metepec,SAN MIGUEL TOTOCUITLAPILCO,UNIDAD DE CONSULTA EXTERNA,19.228238,-99.59332,3,0
Metepec,METEPEC,UNIDAD DE CONSULTA EXTERNA,19.256519,-99.612238,5,0
Metepec,SAN JERONIMO CHICAHUALCO,UNIDAD DE CONSULTA EXTERNA,19.280275,-99.590501,5,0
Metepec,CENTRO DE SALUD CON ATENCIÓN AL ADULTO MAYOR METEPEC,UNIDAD DE CONSULTA EXTERNA,19.25809,-99.596734,9,0
Metepec,ALMACÉN GENERAL DE SEGURO POPULAR,ESTABLECIMIENTO DE APOYO,19.283576,-99.570266,0,0
Metepec,JURISDICCIÓN DE REGULACIÓN SANITARIA NO. 16 SAN MATEO ATENCO,ESTABLECIMIENTO DE APOYO,19.2856,99.5968,0,0
Metepec,OFICINAS CENTRALES DEL INSTITUTO DE SALUD DEL ESTADO DE MÉXICO SEDE METEPEC,ESTABLECIMIENTO DE APOYO,19.250177,-99.573996,0,0
Metepec,UNIDAD ESTATAL DE PROTECCIÓN SOCIAL EN SALUD,ESTABLECIMIENTO DE APOYO,19.282089,-99.574524,0,0
Mexicaltzingo,MEXICALTZINGO,UNIDAD DE CONSULTA EXTERNA,19.208238,-99.58697,4,0
San Bartolo Morelos,EJIDO SAN ANTONIO,UNIDAD DE CONSULTA EXTERNA,19.732459,-99.670298,1,0
San Bartolo Morelos,CEAPS SAN BARTOLO MORELOS,UNIDAD DE CONSULTA EXTERNA,19.785708,-99.669954,5,5
San Bartolo Morelos,COLONIA FRANCISCO I.MADERO,UNIDAD DE CONSULTA EXTERNA,19.804077,-99.738263,1,0
San Bartolo Morelos,SAN GREGORIO MACAPEXCO,UNIDAD DE CONSULTA EXTERNA,19.784445,-99.640697,1,0
San Bartolo Morelos,SAN JOSÉ LA EPIFANIA,UNIDAD DE CONSULTA EXTERNA,19.714844,-99.645765,1,0
San Bartolo Morelos,SAN SEBASTIAN BUENOS AIRES,UNIDAD DE CONSULTA EXTERNA,19.725877,-99.603016,1,0
San Bartolo Morelos,TLALPUJAHUILLA,UNIDAD DE CONSULTA EXTERNA,19.661289,-99.626376,1,0
San Bartolo Morelos,SAN MARCOS TLAZALPAN,UNIDAD DE CONSULTA EXTERNA,19.805836,-99.718732,4,0
San Bartolo Morelos,BARRIO CUARTO LA LOMA,UNIDAD DE CONSULTA EXTERNA,19.765673,-99.678839,1,0
San Bartolo Morelos,SANTA CLARA DE JUÁREZ,UNIDAD DE CONSULTA EXTERNA,19.712976,-99.608665,1,0
San Bartolo Morelos,SAN LORENZO MALACOTA,UNIDAD DE CONSULTA EXTERNA,19.642702,-99.613246,4,0
Naucalpan de Juárez,CENTRO ESPECIALIZADO DE ATENCIÓN A PERSONAS CON DISCAPACIDAD VISUAL,UNIDAD DE HOSPITALIZACION,19.470444,-99.239059,22,15
Naucalpan de Juárez,H.G. DR. MAXIMILIANO RUÍZ CASTAÑEDA,UNIDAD DE HOSPITALIZACION,19.468121,-99.234602,16,198
Naucalpan de Juárez,CEAPS NICOLÁS BRAVO,UNIDAD DE CONSULTA EXTERNA,19.4697,-99.2708,7,6
Naucalpan de Juárez,SAN RAFAEL CHAMAPA MODULO ODONTOPEDIATRICO,UNIDAD DE CONSULTA EXTERNA,19.4567,-99.2561,1,0
Naucalpan de Juárez,CAPA CENTRO NUEVA VIDA NAUCALPAN INDEPENDENCIA,UNIDAD DE CONSULTA EXTERNA,19.4346,-99.2504,2,0
Naucalpan de Juárez,CAPA CENTRO NUEVA VIDA NAUCALPAN,UNIDAD DE CONSULTA EXTERNA,19.4686,-99.2344,2,0
Naucalpan de Juárez,CAPA CENTRO NUEVA VIDA OLIMPIADA 68,UNIDAD DE CONSULTA EXTERNA,19.4478,-99.2788,2,0
Naucalpan de Juárez,CAPASITS NAUCALPAN,UNIDAD DE CONSULTA EXTERNA,19.4685,-99.2345,4,0
Naucalpan de Juárez,CARAVANA NAUCALPAN 1,UNIDAD DE CONSULTA EXTERNA,19.469822,-99.270971,2,0
Naucalpan de Juárez,U. MOVIL ISEM SATÉLITE,UNIDAD DE CONSULTA EXTERNA,19.470041,-99.238838,0,0
Naucalpan de Juárez,U. MÓVIL ISEM EL TEJOCOTE,UNIDAD DE CONSULTA EXTERNA,19.470041,-99.238838,0,0
Naucalpan de Juárez,U. MÓVIL ISEM LA CAÑADA,UNIDAD DE CONSULTA EXTERNA,19.470041,-99.238838,0,0
Naucalpan de Juárez,U. MÓVIL ISEM LOS LEONES,UNIDAD DE CONSULTA EXTERNA,19.470041,-99.238838,0,0
Naucalpan de Juárez,U. MÓVIL ISEM LOS REMEDIOS,UNIDAD DE CONSULTA EXTERNA,19.470041,-99.238838,0,0
Naucalpan de Juárez,U. MÓVIL ISEM TECAMACHALCO,UNIDAD DE CONSULTA EXTERNA,19.470041,-99.238838,0,0
Naucalpan de Juárez,U. MÓVIL ISEM VICENTE GUERRERO,UNIDAD DE CONSULTA EXTERNA,19.470041,-99.238838,0,0
Naucalpan de Juárez,SANTIAGO TEPATLAXCO,UNIDAD DE CONSULTA EXTERNA,19.487,-99.3427,3,0
Naucalpan de Juárez,LA MANCHA 1,UNIDAD DE CONSULTA EXTERNA,19.4334,-99.2686,4,0
Naucalpan de Juárez,SAN FRANCISCO CHIMALPA,UNIDAD DE CONSULTA EXTERNA,19.4415,-99.3388,3,0
Naucalpan de Juárez,RINCÓN VERDE,UNIDAD DE CONSULTA EXTERNA,19.5024,-99.2843,5,0
Naucalpan de Juárez,BENITO JUÁREZ,UNIDAD DE CONSULTA EXTERNA,19.437,-99.2619,7,0
Naucalpan de Juárez,CAPULIN SOLEDAD,UNIDAD DE CONSULTA EXTERNA,19.4505,-99.2587,7,0
Naucalpan de Juárez,CENTRO DE SALUD NAUCALPAN,UNIDAD DE CONSULTA EXTERNA,19.4706,-99.2386,10,0
Naucalpan de Juárez,EL MOLINITO,UNIDAD DE CONSULTA EXTERNA,19.46,-99.2376,7,0
Naucalpan de Juárez,INDEPENDENCIA,UNIDAD DE CONSULTA EXTERNA,19.435,-99.2503,7,0
Naucalpan de Juárez,LAS HUERTAS,UNIDAD DE CONSULTA EXTERNA,19.4578,-99.2815,7,0
Naucalpan de Juárez,OLIMPIADA 68,UNIDAD DE CONSULTA EXTERNA,19.4477,-99.2791,7,0
Naucalpan de Juárez,SAN FRANCISCO CUAUTLALPAN,UNIDAD DE CONSULTA EXTERNA,19.4618,-99.2239,7,0
Naucalpan de Juárez,SAN LORENZO TOTOLINGA,UNIDAD DE CONSULTA EXTERNA,19.4596,-99.2703,7,0
Naucalpan de Juárez,SAN MATEO (LA PRESA),UNIDAD DE CONSULTA EXTERNA,19.4949,-99.279,7,0
Naucalpan de Juárez,SAN RAFAEL CHAMAPA,UNIDAD DE CONSULTA EXTERNA,19.4565,-99.2562,7,0
Naucalpan de Juárez,COMISIÓN DE CONCILIACIÓN Y ARBITRAJE MÉDICO DEL ESTADO DE MÉXICO (DELEGACIÓN DEL VALLE DE MÉXICO - NAUCALPAN),ESTABLECIMIENTO DE APOYO,19.2866395,-99.6550504,0,0
Naucalpan de Juárez,JURISDICCIÓN DE REGULACION SANITARIA,ESTABLECIMIENTO DE APOYO,19.4874924,99.2438267,0,0
Naucalpan de Juárez,JURISDICCIÓN SANITARIA XII. NAUCALPAN,ESTABLECIMIENTO DE APOYO,19.473232,-99.247337,0,0
Nezahualcóyotl,H.G. DR. GUSTAVO BAZ PRADA,UNIDAD DE HOSPITALIZACION,19.422298,-99.01492,14,204
Nezahualcóyotl,HOSPITAL GENERAL LA PERLA NEZAHUALCOYOTL,UNIDAD DE HOSPITALIZACION,19.387708,-98.989443,33,204
Nezahualcóyotl,CAPA CENTRO NUEVA VIDA PIRULES,UNIDAD DE CONSULTA EXTERNA,19.40649,-99.029816,2,0
Nezahualcóyotl,CAPA CENTRO NUEVA VIDA NEZA ESTADO DE MEXICO,UNIDAD DE CONSULTA EXTERNA,19.424007,-99.048236,2,0
Nezahualcóyotl,CAPA CENTRO NUEVA VIDA NEZA JARDINES,UNIDAD DE CONSULTA EXTERNA,19.477709,-99.058667,2,0
Nezahualcóyotl,CAPA CENTRONUEVA VIDA NEZA MANANTIALES,UNIDAD DE CONSULTA EXTERNA,19.377082,-98.993414,2,0
Nezahualcóyotl,CAPASITS NEZAHUALCOYOTL,UNIDAD DE CONSULTA EXTERNA,19.386451,-98.990617,4,0
Nezahualcóyotl,EL SOL,UNIDAD DE CONSULTA EXTERNA,19.430749,-99.031982,7,0
Nezahualcóyotl,ESTADO DE MÉXICO,UNIDAD DE CONSULTA EXTERNA,19.42399001,-99.04852776,7,0
Nezahualcóyotl,ESTADO DE MÉXICO NEZAHUALCOYOTL,UNIDAD DE CONSULTA EXTERNA,19.4225545,-99.041668,7,0
Nezahualcóyotl,VIRGENCITAS,UNIDAD DE CONSULTA EXTERNA,19.42294364,-99.02625604,7,0
Nezahualcóyotl,BENITO JUÁREZ,UNIDAD DE CONSULTA EXTERNA,19.398772,-98.98627,8,0
Nezahualcóyotl,BENITO JUÁREZ III AURORA,UNIDAD DE CONSULTA EXTERNA,19.409459,-98.999724,8,0
Nezahualcóyotl,COL.IMPULSORA POPULAR AVICOLA,UNIDAD DE CONSULTA EXTERNA,19.48088267,-99.04667704,8,0
Nezahualcóyotl,COL.MANANTIALES,UNIDAD DE CONSULTA EXTERNA,19.377047,-98.993548,8,0
Nezahualcóyotl,COL.MARAVILLAS,UNIDAD DE CONSULTA EXTERNA,19.41600702,-99.04952823,8,0
Nezahualcóyotl,ESPERANZA,UNIDAD DE CONSULTA EXTERNA,19.3881109,-98.98478684,8,0
Nezahualcóyotl,JARDINES DE GUADALUPE,UNIDAD DE CONSULTA EXTERNA,19.477886,-99.058687,8,0
Nezahualcóyotl,LOMA BONITA,UNIDAD DE CONSULTA EXTERNA,19.374024,-98.992036,8,0
Nezahualcóyotl,REFORMA,UNIDAD DE CONSULTA EXTERNA,19.374249,-98.975576,8,0
Nezahualcóyotl,CIUDAD LAGO,UNIDAD DE CONSULTA EXTERNA,19.45184957,-99.04988942,9,0
Nezahualcóyotl,LOS PIRULES,UNIDAD DE CONSULTA EXTERNA,19.406633,-99.030143,9,0
Nezahualcóyotl,COL.BENITO JUÁREZ II EL VERGELITO,UNIDAD DE CONSULTA EXTERNA,19.4101756,-99.0062311,12,0
Nezahualcóyotl,METROPOLITANA,UNIDAD DE CONSULTA EXTERNA,19.39363182,-99.02862041,16,0
Nezahualcóyotl,ALMACÉN JURISDICCIONAL NEZAHUALCOYOTL,ESTABLECIMIENTO DE APOYO,19.415813,-99.015182,0,0
Nezahualcóyotl,JURIS. SANIT. XVIII-NEZAHUALCOYOTL,ESTABLECIMIENTO DE APOYO,19.40151,-99.047676,0,0
Nezahualcóyotl,JURISDICCIÓN DE REGULACION SANITARIA,ESTABLECIMIENTO DE APOYO,19.4439,-99.8606,0,0
Nextlalpan,CEAPS NEXTLALPAN,UNIDAD DE CONSULTA EXTERNA,19.736167,-99.077894,7,2
Nextlalpan,CENTRO DE SALUD NEXTLALPAN,UNIDAD DE CONSULTA EXTERNA,19.707346,-99.073147,6,0
Nextlalpan,SAN MIGUEL XALTOCAN,UNIDAD DE CONSULTA EXTERNA,19.724357,-99.048959,3,0
Nicolás Romero,HOSPITAL MUNICIPAL JUAN ALDAMA VILLA NICOLÁS ROMERO,UNIDAD DE HOSPITALIZACION,19.64012,-99.377949,10,37
Nicolás Romero,SAN JUAN DE LAS TABLAS,UNIDAD DE CONSULTA EXTERNA,19.6715889,-99.423961,1,0
Nicolás Romero,SAN JOSÉ DEL VIDRIO,UNIDAD DE CONSULTA EXTERNA,19.384433,-99.416522,1,0
Nicolás Romero,TRANSFIGURACIÓN,UNIDAD DE CONSULTA EXTERNA,19.576693,-99.412872,1,0
Nicolás Romero,CAHUACAN 5O. BARRIO,UNIDAD DE CONSULTA EXTERNA,19.62357984,-99.41650266,3,0
Nicolás Romero,CAHUACÁN CENTRO,UNIDAD DE CONSULTA EXTERNA,19.641081,-99.413849,2,0
Nicolás Romero,CENTRO DE SALUD CLARA CÓRDOVA,UNIDAD DE CONSULTA EXTERNA,19.598796,-99.280927,2,0
Nicolás Romero,SAN FRANCISCO MAGÚ,UNIDAD DE CONSULTA EXTERNA,19.6885236,-99.35850171,2,0
Nicolás Romero,COL. JORGE JIMÉNEZ CANTU,UNIDAD DE CONSULTA EXTERNA,19.644341,-99.313858,5,0
Nicolás Romero,COL. LIBERTAD,UNIDAD DE CONSULTA EXTERNA,19.63540055,-99.30792061,6,0
Nicolás Romero,EL GLOBO,UNIDAD DE CONSULTA EXTERNA,19.6252611,-99.2953777,6,0
Nicolás Romero,INDEPENDENCIA,UNIDAD DE CONSULTA EXTERNA,19.6324917,-99.31885597,7,0
Nicolás Romero,LA COLMENA,UNIDAD DE CONSULTA EXTERNA,19.6005751,-99.29267493,7,0
Nicolás Romero,TRAFICO NUEVO,UNIDAD DE CONSULTA EXTERNA,19.6184722,-99.32714722,7,0
Nopaltepec,CEAPS NOPALTEPEC CARLOS MARÍA DE BUSTAMANTE BICENTENARIO,UNIDAD DE CONSULTA EXTERNA,19.777576,-98.708862,8,4
Nopaltepec,SAN MIGUEL ATEPOXCO,UNIDAD DE CONSULTA EXTERNA,19.748125,-98.744942,2,0
Nopaltepec,SAN FELIPE TEOTITLÁN,UNIDAD DE CONSULTA EXTERNA,19.803047,-98.70565,2,0
Ocoyoacac,C.S. SANTA MARÍA LA ASUNCION TEPEXOYUCA,UNIDAD DE CONSULTA EXTERNA,19.27087,-99.44269,3,0
Ocoyoacac,SAN JERONIMO ACAZULCO,UNIDAD DE CONSULTA EXTERNA,19.26566714,-99.41714298,2,0
Ocoyoacac,SAN MIGUEL OCOYOACAC,UNIDAD DE CONSULTA EXTERNA,19.27332138,-99.46022807,2,0
Ocoyoacac,SAN PEDRO ATLAPULCO,UNIDAD DE CONSULTA EXTERNA,19.243984,-99.395927,3,0
Ocoyoacac,SAN PEDRO CHOLULA,UNIDAD DE CONSULTA EXTERNA,19.2677932,-99.48287001,2,0
Ocoyoacac,SANTA MARÍA OCOYOACAC,UNIDAD DE CONSULTA EXTERNA,19.27161868,-99.46582718,4,0
Ocuilan,LA LAGUNITA,UNIDAD DE CONSULTA EXTERNA,18.875193,-99.425309,1,0
Ocuilan,CEAPS OCUILAN,UNIDAD DE CONSULTA EXTERNA,18.9873538,-99.4241852,7,6
Ocuilan,AHUATENCO,UNIDAD DE CONSULTA EXTERNA,18.947075,-99.33284,1,0
Ocuilan,CHALMITA (SAN AMBROCIO),UNIDAD DE CONSULTA EXTERNA,18.933953,-99.422677,2,0
Ocuilan,SAN JUAN ATZINGO,UNIDAD DE CONSULTA EXTERNA,19.0088619,-99.3850122,1,0
Ocuilan,SANTA LUCIA,UNIDAD DE CONSULTA EXTERNA,19.027172,-99.388459,1,0
Ocuilan,SANTA MARTHA,UNIDAD DE CONSULTA EXTERNA,19.059203,-99.379661,1,0
Ocuilan,TEZONTEPEC SANTA CRUZ,UNIDAD DE CONSULTA EXTERNA,19.020937,-99.466342,1,0
Ocuilan,SANTA MONICA,UNIDAD DE CONSULTA EXTERNA,18.98886,-99.425213,1,0
Ocuilan,OCUILAN DE ARTEAGA,UNIDAD DE CONSULTA EXTERNA,18.979097,-99.417994,3,0
El Oro,HOSPITAL IGNACIO LÓPEZ RAYÓN BICENTENARIO,UNIDAD DE HOSPITALIZACION,19.803249,-100.129387,10,17
El Oro,CENTRO DE SALUD ADOLFO LÓPEZ MATEOS,UNIDAD DE CONSULTA EXTERNA,19.800712,-99.999638,1,0
El Oro,CENTRO DE SALUD EL GIGANTE,UNIDAD DE CONSULTA EXTERNA,19.767035,-100.095108,1,0
El Oro,CENTRO DE SALUD SANTIAGO OXTEMPAN EJIDO,UNIDAD DE CONSULTA EXTERNA,19.81127,-100.090613,1,0
El Oro,CERRO LLORON,UNIDAD DE CONSULTA EXTERNA,19.76443179,-100.114746,1,0
El Oro,LA CONCEPCIÓN SEGUNDA,UNIDAD DE CONSULTA EXTERNA,19.80067,-100.060055,1,0
El Oro,LA JORDANA,UNIDAD DE CONSULTA EXTERNA,19.79470419,-99.99625141,1,0
El Oro,SAN NICOLÁS TULTENANGO,UNIDAD DE CONSULTA EXTERNA,19.81322472,-100.0822207,1,0
El Oro,SANTA ROSA DE LIMA,UNIDAD DE CONSULTA EXTERNA,19.781852,-100.10371,1,0
El Oro,SANTIAGO OXTEMPAN PUEBLO,UNIDAD DE CONSULTA EXTERNA,19.79416412,-100.1124072,1,0
El Oro,EL TEJOCOTE,UNIDAD DE CONSULTA EXTERNA,19.750099,-100.116417,2,0
El Oro,PUEBLO NUEVO DE LOS ÁNGELES,UNIDAD DE CONSULTA EXTERNA,19.7751189,-100.0127363,2,0
El Oro,TAPAXCO,UNIDAD DE CONSULTA EXTERNA,19.78853357,-100.0427681,3,0
El Oro,U. MÓVIL ISEM CIUDAD CUAUHTEMOC 3,UNIDAD DE CONSULTA EXTERNA,19.804383,-100.127436,0,0
El Oro,CENTRO DE SALUD EL ORO,UNIDAD DE CONSULTA EXTERNA,19.80391973,-100.1274067,5,0
Otumba,HOSPITAL MUNICIPAL OTUMBA BICENTENARIO,UNIDAD DE HOSPITALIZACION,19.70285,-98.763813,8,23
Otumba,BELÉM,UNIDAD DE CONSULTA EXTERNA,19.634361,-98.796104,3,0
Otumba,SANTIAGO TOLMAN,UNIDAD DE CONSULTA EXTERNA,19.724241,-98.791,2,0
Otumba,CENTRO DE SALUD CUAUTLACINGO,UNIDAD DE CONSULTA EXTERNA,19.701314,-98.776792,3,0
Otumba,OTUMBA,UNIDAD DE CONSULTA EXTERNA,19.701093,-98.750688,3,0
Otumba,ALMACÉN JURISDICCIONAL TEOTIHUACÁN,ESTABLECIMIENTO DE APOYO,19.70285,-98.763813,0,0
Otzoloapan,CRUZ BLANCA,UNIDAD DE CONSULTA EXTERNA,19.126038,-100.3663,1,0
Otzoloapan,CEAPS OTZOLOAPAN,UNIDAD DE CONSULTA EXTERNA,19.119796,-100.294901,5,7
Otzolotepec,SANTA MARÍA TETITLA,UNIDAD DE HOSPITALIZACION,19.421739,-99.556624,6,12
Otzolotepec,LA HUÁNICA,UNIDAD DE CONSULTA EXTERNA,19.4569,-99.5031,1,0
Otzolotepec,SAN AGUSTIN MIMBRES,UNIDAD DE CONSULTA EXTERNA,19.452587,-99.55117,1,0
Otzolotepec,CENTRO DE SALUD SAN MATEO CAPULHÚAC ZONA NO. 4,UNIDAD DE CONSULTA EXTERNA,19.464632,-99.531846,1,0
Otzolotepec,LA PILAR MARÍA,UNIDAD DE CONSULTA EXTERNA,19.461803,-99.552314,1,0
Otzolotepec,MAYORAZGO (SANTA ANA),UNIDAD DE CONSULTA EXTERNA,19.42945892,-99.51344219,1,0
Otzolotepec,VILLA SECA (LA PROVIDENCIA),UNIDAD DE CONSULTA EXTERNA,19.40475685,-99.63720736,1,0
Otzolotepec,COLONIA GUADALUPE VICTORIA,UNIDAD DE CONSULTA EXTERNA,19.38794262,-99.57960692,2,0
Otzolotepec,SAN MATEO MOZOQUILPAN,UNIDAD DE CONSULTA EXTERNA,19.428993,-99.554071,2,0
Otzolotepec,SAN MATEO CAPULHUAC,UNIDAD DE CONSULTA EXTERNA,19.472164,-99.524887,3,0
Otzolotepec,SANTA ANA JILOTZINGO,UNIDAD DE CONSULTA EXTERNA,19.455244,-99.487514,3,0
Otzolotepec,VILLA CUAUHTÉMOC,UNIDAD DE CONSULTA EXTERNA,19.417208,-99.55663,3,0
Ozumba,CEAPS OZUMBA FRANCISCO JAVIER MINA,UNIDAD DE CONSULTA EXTERNA,19.039997,-98.793206,6,4
Ozumba,CENTRO DE SALUD SAN JOSÉ TLACOTITLÁN OZUMBA,UNIDAD DE CONSULTA EXTERNA,18.989361,-98.805278,2,0
Papalotla,PAPALOTLA,UNIDAD DE CONSULTA EXTERNA,19.561693,-98.85883,3,0
La Paz,HOSPITAL MATERNO INFANTIL MIGUEL HIDALGO Y COSTILLA LOS REYES LA PAZ,UNIDAD DE HOSPITALIZACION,19.374755,-98.944597,11,50
La Paz,CAPA CENTRO NUEVA VIDA LOS REYES LA PAZ MAGDALENA ATLIPAC,UNIDAD DE CONSULTA EXTERNA,19.370981,-98.95565,2,0
La Paz,SORID LA MAGDALENA ATLICPAC,UNIDAD DE CONSULTA EXTERNA,19.3711495,-98.9557555,4,0
La Paz,U. MÓVIL ISEM LA MAGDALENA,UNIDAD DE CONSULTA EXTERNA,19.370674,-98.955673,0,0
La Paz,EL PINO,UNIDAD DE CONSULTA EXTERNA,19.35043,-98.949351,3,0
La Paz,SAN ISIDRO,UNIDAD DE CONSULTA EXTERNA,19.3400141,-98.9467095,3,0
La Paz,EMILIANO ZAPATA,UNIDAD DE CONSULTA EXTERNA,19.348972,-98.982849,7,0
La Paz,LA FLORESTA,UNIDAD DE CONSULTA EXTERNA,19.365891,-98.986453,7,0
La Paz,LA MAGDALENA,UNIDAD DE CONSULTA EXTERNA,19.37055,-98.955698,7,0
La Paz,LOS REYES,UNIDAD DE CONSULTA EXTERNA,19.361069,-98.979546,10,0
Polotitlán,CEAPS POLOTITLAN,UNIDAD DE CONSULTA EXTERNA,20.212945,-99.817001,8,2
Polotitlán,CELAYITA,UNIDAD DE CONSULTA EXTERNA,20.241094,-99.861852,1,0
Polotitlán,EL ALAMO,UNIDAD DE CONSULTA EXTERNA,20.20821,-99.794002,1,0
Polotitlán,EL RUANO,UNIDAD DE CONSULTA EXTERNA,20.182521,-99.764817,1,0
Polotitlán,ENCINILLAS,UNIDAD DE CONSULTA EXTERNA,20.14982,-99.740063,1,0
Polotitlán,SAN ANTONIO ESCOBEDO,UNIDAD DE CONSULTA EXTERNA,20.251978,-99.917413,1,0
Polotitlán,SAN FRANCISCO ACAZUCHITLALTONGO,UNIDAD DE CONSULTA EXTERNA,20.167196,-99.704276,1,0
Rayón,CEAPS SANTA MARÍA RAYÓN BICENTENARIO,UNIDAD DE CONSULTA EXTERNA,19.148379,-99.58107,8,6
Rayón,SAN JUAN LA ISLA,UNIDAD DE CONSULTA EXTERNA,19.129932,-99.571425,1,0
San Antonio la Isla,CEAPS SAN ANTONIO LA ISLA LEONARDO BRAVO BICENTENARIO,UNIDAD DE CONSULTA EXTERNA,19.163208,-99.565079,8,6
San Antonio la Isla,SAN LUCAS TEPEMAJALCO,UNIDAD DE CONSULTA EXTERNA,19.16175,-99.57013,2,0
San Antonio la Isla,OFICINA DE LA COORDINACIÓN MUNICIPAL,ESTABLECIMIENTO DE APOYO,19.164085,-99.565274,0,0
San Felipe del Progreso,HOSPITAL GENERAL SAN FELIPE DEL PROGRESO,UNIDAD DE HOSPITALIZACION,19.717727,-99.9537,12,82
San Felipe del Progreso,EJIDO SAN JUAN JALPA,UNIDAD DE CONSULTA EXTERNA,19.692286,-99.91077,1,0
San Felipe del Progreso,BOREJE,UNIDAD DE CONSULTA EXTERNA,19.679956,-100.05205,1,0
San Felipe del Progreso,C.S. CHOTEJE,UNIDAD DE CONSULTA EXTERNA,19.717469,-100.021859,1,0
San Felipe del Progreso,C.S. SAN JERÓNIMO MAVATI,UNIDAD DE CONSULTA EXTERNA,19.60498,-99.944505,1,0
San Felipe del Progreso,CENTRO DE SALUD DIOS PADRE,UNIDAD DE CONSULTA EXTERNA,19.618314,-100.060096,1,0
San Felipe del Progreso,CENTRO DE SALUD LA SOLEDAD,UNIDAD DE CONSULTA EXTERNA,19.658965,-100.033296,1,0
San Felipe del Progreso,CENTRO DE SALUD SANTA ANA NICHI CENTRO,UNIDAD DE CONSULTA EXTERNA,19.59532,-99.978188,1,0
San Felipe del Progreso,DOTEGIARE,UNIDAD DE CONSULTA EXTERNA,19.710048,-100.040123,1,0
San Felipe del Progreso,EL TUNAL NENAXI,UNIDAD DE CONSULTA EXTERNA,19.744666,-99.906228,1,0
San Felipe del Progreso,FRESNO NICHI,UNIDAD DE CONSULTA EXTERNA,19.569789,-99.948524,1,0
San Felipe del Progreso,LAS PALOMAS,UNIDAD DE CONSULTA EXTERNA,19.596176,-100.00748,1,0
San Felipe del Progreso,PALMILLAS,UNIDAD DE CONSULTA EXTERNA,19.693592,-99.949115,1,0
San Felipe del Progreso,RINCÓN DE LOS PIRULES,UNIDAD DE CONSULTA EXTERNA,19.735428,-100.030435,1,0
San Felipe del Progreso,SAN ANTONIO LA CIÉNEGA,UNIDAD DE CONSULTA EXTERNA,19.654122,-100.05406,1,0
San Felipe del Progreso,SAN JERONIMO BONCHETE,UNIDAD DE CONSULTA EXTERNA,19.632211,-99.955703,1,0
San Felipe del Progreso,SAN JUAN COTE EJIDO,UNIDAD DE CONSULTA EXTERNA,19.607501,-99.960052,1,0
San Felipe del Progreso,SANTA ANA NICHI EJIDO,UNIDAD DE CONSULTA EXTERNA,19.582536,-99.980934,1,0
San Felipe del Progreso,CENTRO DE SALUD CONCEPCIÓN CABECERA,UNIDAD DE CONSULTA EXTERNA,19.70616,-99.942363,3,0
San Felipe del Progreso,CHICHILPA,UNIDAD DE CONSULTA EXTERNA,19.719867,-100.042436,2,0
San Felipe del Progreso,LA VIRGEN,UNIDAD DE CONSULTA EXTERNA,19.5952,-100.02283,3,0
San Felipe del Progreso,PURÍSIMA CONCEPCIÓN MAYORAZGO,UNIDAD DE CONSULTA EXTERNA,19.695199,-100.003663,2,0
San Felipe del Progreso,RIOYOS BUENAVISTA,UNIDAD DE CONSULTA EXTERNA,19.697851,-100.066169,2,0
San Felipe del Progreso,SAN PABLO TLALCHICHILPA,UNIDAD DE CONSULTA EXTERNA,19.723406,-99.985282,2,0
San Felipe del Progreso,CARMEN OCOTEPEC,UNIDAD DE CONSULTA EXTERNA,19.677587,-99.9757,4,0
San Felipe del Progreso,SAN ANTONIO MEXTEPEC,UNIDAD DE CONSULTA EXTERNA,19.655253,-99.949081,3,0
San Felipe del Progreso,U. MÓVIL ISEM TUNGAREO,UNIDAD DE CONSULTA EXTERNA,19.706181,-99.942244,0,0
San Felipe del Progreso,U. MÓVIL ISEM ZARAGOZA,UNIDAD DE CONSULTA EXTERNA,19.717547,-99.953504,0,0
San Felipe del Progreso,C.S. SAN JUAN JALPA,UNIDAD DE CONSULTA EXTERNA,19.698765,-99.927315,1,0
San Felipe del Progreso,DOLORES HIDALGO,UNIDAD DE CONSULTA EXTERNA,19.658139,-99.925785,1,0
San Felipe del Progreso,"C.S. EL TUNAL, SAN FELIPE DEL PROGRESO",UNIDAD DE CONSULTA EXTERNA,19.712803,-99.958046,2,0
San Felipe del Progreso,CALVARIO DEL CARMEN,UNIDAD DE CONSULTA EXTERNA,19.635789,-100.01114,3,0
San Felipe del Progreso,EMILIO PORTES GIL,UNIDAD DE CONSULTA EXTERNA,19.645898,-99.917539,2,0
San Felipe del Progreso,SAN AGUSTÍN MEXTEPEC,UNIDAD DE CONSULTA EXTERNA,19.632827,-99.927104,2,0
San Felipe del Progreso,SAN ANTONIO DE LAS HUERTAS,UNIDAD DE CONSULTA EXTERNA,19.558124,-99.968452,3,0
San Felipe del Progreso,SAN MIGUEL LA LABOR,UNIDAD DE CONSULTA EXTERNA,19.606772,-100.00025,2,0
San Felipe del Progreso,SAN NICOLÁS GUADALUPE,UNIDAD DE CONSULTA EXTERNA,19.60972,-100.03065,4,0
San Felipe del Progreso,SAN PEDRO EL ALTO,UNIDAD DE CONSULTA EXTERNA,19.612913,-99.90753,4,0
San Martín de las Pirámides,CEAPS SAN MARTÍN DE LAS PIRÁMIDES IGNACIO LÓPEZ RAYÓN BICENTENARIO,UNIDAD DE CONSULTA EXTERNA,19.708729,-98.828545,9,2
San Martín de las Pirámides,SAN PABLO IXQUITLÁN,UNIDAD DE CONSULTA EXTERNA,19.709316,-98.789072,1,0
San Martín de las Pirámides,SANTA MARÍA PALAPA,UNIDAD DE CONSULTA EXTERNA,19.73427,-98.848755,1,0
San Martín de las Pirámides,SANTIAGO TEPETITLÁN,UNIDAD DE CONSULTA EXTERNA,19.638581,-98.816428,1,0
San Mateo Atenco,CEAPS SAN MATEO ATENCO,UNIDAD DE CONSULTA EXTERNA,19.263388,-99.531059,7,6
San Mateo Atenco,C.S. EMILIANO ZAPATA,UNIDAD DE CONSULTA EXTERNA,19.306658,-99.547745,1,0
San Mateo Atenco,CENTRO DE SALUD BARRIO SAN ISIDRO,UNIDAD DE CONSULTA EXTERNA,19.276964,-99.550089,2,0
San Mateo Atenco,BARRIO DE GUADALUPE,UNIDAD DE CONSULTA EXTERNA,19.246719,-99.532074,3,0
San Mateo Atenco,SANTA JUANITA BUENAVISTA,UNIDAD DE CONSULTA EXTERNA,19.28188341,-99.54974009,2,0
San Mateo Atenco,SANTA MARÍA LA ASUNCIÓN,UNIDAD DE CONSULTA EXTERNA,19.268171,-99.554825,2,0
San Simón de Guerrero,CEAPS SAN SIMON DE GUERRERO,UNIDAD DE CONSULTA EXTERNA,19.023492,-100.012451,5,2
San Simón de Guerrero,ESTANCIA VIEJA,UNIDAD DE CONSULTA EXTERNA,19.012929,-100.038146,1,0
San Simón de Guerrero,SAN DIEGO CUENTLA,UNIDAD DE CONSULTA EXTERNA,18.96691,-100.06821,1,0
San Simón de Guerrero,SAN GABRIEL CUENTLA,UNIDAD DE CONSULTA EXTERNA,18.968555,-100.056048,1,0
San Simón de Guerrero,SAN SIMON DE GUERRERO,UNIDAD DE CONSULTA EXTERNA,19.022469,-100.005422,1,0
Santo Tomás,PUERTO DE SANTO TOMAS,UNIDAD DE CONSULTA EXTERNA,19.192543,-100.369982,1,0
Santo Tomás,CEAPS SANTO TOMAS DE LOS PLATANOS,UNIDAD DE CONSULTA EXTERNA,19.184053,-100.261467,5,4
Santo Tomás,POTRERO DE ARRIBA,UNIDAD DE CONSULTA EXTERNA,19.199845,-100.34299,1,0
Santo Tomás,RINCÓN CHICO,UNIDAD DE CONSULTA EXTERNA,19.165682,-100.2199,1,0
Soyaniquilpan de Juárez,CEAPS SOYANIQUILPAN,UNIDAD DE CONSULTA EXTERNA,20.015173,-99.531293,6,2
Soyaniquilpan de Juárez,SAN JOSÉ DEGUEDO,UNIDAD DE CONSULTA EXTERNA,20.07561,-99.553898,1,0
Soyaniquilpan de Juárez,SAN JUAN DAXTHI,UNIDAD DE CONSULTA EXTERNA,20.096036,-99.525645,1,0
Soyaniquilpan de Juárez,CENTRO DE SALUD DIVISADERO FRESNO,UNIDAD DE CONSULTA EXTERNA,20.01535,-99.4508,2,0
Soyaniquilpan de Juárez,SAN AGUSTÍN BUENAVISTA,UNIDAD DE CONSULTA EXTERNA,20.048,-99.48677,2,0
Sultepec,HOSPITAL JOSÉ MARÍA COSS BICENTERARIO,UNIDAD DE HOSPITALIZACION,18.858986,-99.967138,6,14
Sultepec,METLALTEPEC,UNIDAD DE CONSULTA EXTERNA,18.723555,-99.935731,1,0
Sultepec,PUERTO FRIO,UNIDAD DE CONSULTA EXTERNA,18.832825,-100.014256,1,0
Sultepec,SANTO TOMAS DE LAS FLORES (SANTO TOMAS),UNIDAD DE CONSULTA EXTERNA,18.832825,-100.014256,1,0
Sultepec,ATZUMPA,UNIDAD DE CONSULTA EXTERNA,18.766874,-99.939583,1,0
Sultepec,LAGUNA SECA,UNIDAD DE CONSULTA EXTERNA,18.657969,-99.944327,1,0
Sultepec,MANEALT DE GUADALUPE,UNIDAD DE CONSULTA EXTERNA,18.780311,-99.866378,1,0
Sultepec,POTZONTEPEC,UNIDAD DE CONSULTA EXTERNA,18.738368,-99.894182,1,0
Sultepec,PUENTECILLAS,UNIDAD DE CONSULTA EXTERNA,18.744615,-100.049648,1,0
Sultepec,RINCÓN DEL CRISTO,UNIDAD DE CONSULTA EXTERNA,18.758434,-100.100914,1,0
Sultepec,SAN MIGUEL TOTOLMALOYA,UNIDAD DE CONSULTA EXTERNA,18.636883,-99.980961,2,0
Sultepec,SAN PEDRO HUEYAHUALCO,UNIDAD DE CONSULTA EXTERNA,18.680436,-99.976911,1,0
Sultepec,SULTEPEQUITO,UNIDAD DE CONSULTA EXTERNA,18.807344,-100.016946,2,0
Sultepec,SANTA CRUZ TEXCALAPA,UNIDAD DE CONSULTA EXTERNA,18.829011,-99.987618,3,0
Tecámac,HOSPITAL MUNICIPAL TECAMAC LIC. CÉSAR CAMACHO QUIROZ,UNIDAD DE HOSPITALIZACION,19.746403,-98.971475,9,28
Tecámac,CEAPS HÉROES TECÁMAC,UNIDAD DE CONSULTA EXTERNA,19.626466,-99.042177,8,4
Tecámac,CEAPS LOMAS TECAMAC,UNIDAD DE CONSULTA EXTERNA,19.656992,-98.99332,7,3
Tecámac,CAPA CENTRO NUEVA VIDA TECÁMAC,UNIDAD DE CONSULTA EXTERNA,19.820399,-99.086099,4,0
Tecámac,LOMA BONITA,UNIDAD DE CONSULTA EXTERNA,19.665306,-99.009253,4,0
Tecámac,OJO DE AGUA,UNIDAD DE CONSULTA EXTERNA,19.654011,-99.007584,1,0
Tecámac,REYES ACOZAC,UNIDAD DE CONSULTA EXTERNA,19.772384,-98.982177,1,0
Tecámac,SAN JERONIMO XONACAHUACA,UNIDAD DE CONSULTA EXTERNA,19.741077,-98.955184,1,0
Tecámac,SAN LUCAS XOLOX,UNIDAD DE CONSULTA EXTERNA,19.778369,-99.003563,1,0
Tecámac,SAN MATEO TECALCO,UNIDAD DE CONSULTA EXTERNA,19.678195,-98.96456,1,0
Tecámac,SANTO DOMINGO AJOLOAPAN,UNIDAD DE CONSULTA EXTERNA,19.764442,-98.954084,2,0
Tecámac,CENTRO DE SALUD SAN MARTIN AZCATEPEC,UNIDAD DE CONSULTA EXTERNA,19.685146,-98.970302,4,0
Tecámac,CENTRO DE SALUD URBANO TECAMAC CENTRO,UNIDAD DE CONSULTA EXTERNA,19.711202,-98.970753,6,0
Tecámac,ISIDRO FABELA,UNIDAD DE CONSULTA EXTERNA,19.721161,-98.964691,2,0
Tecámac,SAN PEDRO ATZOMPA,UNIDAD DE CONSULTA EXTERNA,19.680092,-99.011626,3,0
Tecámac,5 DE MAYO,UNIDAD DE CONSULTA EXTERNA,19.691372,-98.979012,3,0
Tecámac,SANTA MARÍA OZUMBILLA,UNIDAD DE CONSULTA EXTERNA,19.669953,-99.001575,5,0
Tejupilco,HOSPITAL GENERAL MIGUEL HIDALGO Y COSTILLA BICENTENARIO,UNIDAD DE HOSPITALIZACION,18.90353,-100.158156,12,88
Tejupilco,CEAPS BEJUCOS,UNIDAD DE CONSULTA EXTERNA,18.781973,-100.429046,7,4
Tejupilco,ACAMUCHITLÁN,UNIDAD DE CONSULTA EXTERNA,18.83698,-100.269641,1,0
Tejupilco,ALMOLOYA DE LAS GRANADAS,UNIDAD DE CONSULTA EXTERNA,18.972353,-100.132994,1,0
Tejupilco,EPAZOTES,UNIDAD DE CONSULTA EXTERNA,18.924781,-100.221487,1,0
Tejupilco,LA ESTANCIA,UNIDAD DE CONSULTA EXTERNA,18.85505,-100.114019,1,0
Tejupilco,LA LABOR DE ZARAGOZA,UNIDAD DE CONSULTA EXTERNA,18.872111,-100.098773,1,0
Tejupilco,LAS ANONAS,UNIDAD DE CONSULTA EXTERNA,18.787224,-100.365342,1,0
Tejupilco,LOS MELCHORES,UNIDAD DE CONSULTA EXTERNA,18.976532,-100.239629,1,0
Tejupilco,OCOTEPEC,UNIDAD DE CONSULTA EXTERNA,18.903218,-100.048189,1,0
Tejupilco,PANTOJA,UNIDAD DE CONSULTA EXTERNA,18.876632,-100.017849,1,0
Tejupilco,SAN LUCAS DE MAÍZ,UNIDAD DE CONSULTA EXTERNA,18.963372,-100.184333,1,0
Tejupilco,SAN MIGUEL IXTAPAN,UNIDAD DE CONSULTA EXTERNA,18.807941,-100.147688,1,0
Tejupilco,SAUZ SAN LUCAS,UNIDAD DE CONSULTA EXTERNA,18.998245,-100.229327,1,0
Tejupilco,TENERIA PUEBLO NUEVO,UNIDAD DE CONSULTA EXTERNA,18.974014,-100.092573,1,0
Tejupilco,CAPA CENTRO NUEVA VIDA TEJUPILCO,UNIDAD DE CONSULTA EXTERNA,18.858333,-100.123357,2,0
Tejupilco,CARAVANA CUADRILLA DE LÓPEZ,UNIDAD DE CONSULTA EXTERNA,18.909626,-100.150172,0,0
Tejupilco,U. MÓVIL ISEM LA CABECERA,UNIDAD DE CONSULTA EXTERNA,18.909626,-100.150172,0,0
Tejupilco,U. MÓVIL ISEM MONTE DE DIOS,UNIDAD DE CONSULTA EXTERNA,18.909626,-100.150172,0,0
Tejupilco,U. MÓVIL ISEM PUERTO DEL AIRE,UNIDAD DE CONSULTA EXTERNA,18.909626,-100.150172,0,0
Tejupilco,CENTRO DE SALUD URBANO TEJUPILCO,UNIDAD DE CONSULTA EXTERNA,18.897354,-100.145523,10,0
Tejupilco,JURISDICCIÓN SANITARIA VII. TEJUPILCO,ESTABLECIMIENTO DE APOYO,18.909566,-100.150172,0,0
Tejupilco,JURISDCCIÓN SANITARIA VII. TEJUPILCO,ESTABLECIMIENTO DE APOYO,18.908093,-100.15796,0,0
Tejupilco,JURISDICCIÓN DE REGULACIÓN SANITARIA NO. 3 TEJUPILCO,ESTABLECIMIENTO DE APOYO,18.909,-100.1504,0,0
Temamatla,CEAPS TEMAMATLA,UNIDAD DE CONSULTA EXTERNA,19.20296043,-98.8690227,6,4
Temamatla,U. MÓVIL ISEM CHALCO 3,UNIDAD DE CONSULTA EXTERNA,19.202887,-98.869311,0,0
Temascalapa,CEAPS TEMASCALAPA LEANDRO VALLE BICENTENARIO,UNIDAD DE CONSULTA EXTERNA,19.8291,-98.9037,7,3
Temascalapa,SAN MIGUEL ATLAMAJAC,UNIDAD DE CONSULTA EXTERNA,19.747169,-98.934227,1,0
Temascalapa,SANTA MARÍA MAQUIXCO,UNIDAD DE CONSULTA EXTERNA,19.78362,-98.83157,1,0
Temascalapa,IXTLAHUACA DE CUAUHTÉMOC,UNIDAD DE CONSULTA EXTERNA,19.886022,-98.868139,1,0
Temascalapa,SAN BARTOLOMÉ ACTOPAN,UNIDAD DE CONSULTA EXTERNA,19.837597,-98.855909,1,0
Temascalapa,SAN JUAN TEACALCO,UNIDAD DE CONSULTA EXTERNA,19.806146,-98.852164,1,0
Temascalapa,SAN LUIS TECUAHUTITLÁN,UNIDAD DE CONSULTA EXTERNA,19.765441,-98.891764,1,0
Temascalapa,SANTA ANA TLACHIHUALPA,UNIDAD DE CONSULTA EXTERNA,19.774786,-98.908323,1,0
Temascalcingo,CEAPS EX-HACIENDA DE SOLIS,UNIDAD DE CONSULTA EXTERNA,19.97736918,-100.0543169,5,4
Temascalcingo,CENTRO DE SALUD SAN JOSE IXTAPA,UNIDAD DE CONSULTA EXTERNA,20.016923,-100.118056,1,0
Temascalcingo,CENTRO DE SALUD SAN JOSE SOLIS,UNIDAD DE CONSULTA EXTERNA,19.99868,-100.053921,1,0
Temascalcingo,CENTRO DE SALUD SAN MATEO EL VIEJO,UNIDAD DE CONSULTA EXTERNA,19.916662,-99.91205,1,0
Temascalcingo,JUANACATLÁN,UNIDAD DE CONSULTA EXTERNA,19.91217,-100.070885,1,0
Temascalcingo,SAN FRANCISCO SOLIS,UNIDAD DE CONSULTA EXTERNA,19.92955001,-100.0451337,1,0
Temascalcingo,SAN JUANICO EL ALTO,UNIDAD DE CONSULTA EXTERNA,19.84275078,-100.0397024,2,0
Temascalcingo,SAN PEDRO EL ALTO,UNIDAD DE CONSULTA EXTERNA,19.91028109,-99.96353221,1,0
Temascalcingo,SAN PEDRO POTLA,UNIDAD DE CONSULTA EXTERNA,19.85482737,-99.96841395,1,0
Temascalcingo,SANTA ANA YENSHU LA MESA,UNIDAD DE CONSULTA EXTERNA,19.83019748,-100.0046294,1,0
Temascalcingo,SANTA MARÍA CANCHESDA,UNIDAD DE CONSULTA EXTERNA,19.85456284,-100.0435827,1,0
Temascalcingo,AHUACATITLAN,UNIDAD DE CONSULTA EXTERNA,19.95352839,-99.99088163,2,0
Temascalcingo,U. MÓVIL ISEM SAN RAFAEL,UNIDAD DE CONSULTA EXTERNA,19.911993,-100.017368,0,0
Temascalcingo,LA MAGDALENA,UNIDAD DE CONSULTA EXTERNA,19.949583,-100.000386,1,0
Temascalcingo,SAN FRANCISCO TEPEOLULCO,UNIDAD DE CONSULTA EXTERNA,19.83785652,-99.9841806,4,0
Temascalcingo,SANTIAGO COACHOCHITLAN,UNIDAD DE CONSULTA EXTERNA,19.86775784,-100.0293379,4,0
Temascalcingo,CENTRO DE SALUD URBANO TEMASCALCINGO,UNIDAD DE CONSULTA EXTERNA,19.544322,-100.1357,6,0
Temascalcingo,COORDINACIÓN MUNICIPAL TEMASCALCINGO,ESTABLECIMIENTO DE APOYO,19.91254,-100.0069,0,0
Temascaltepec,HOSPITAL MUNICIPAL TEMASCALTEPEC,UNIDAD DE HOSPITALIZACION,19.051632,-100.02,7,38
Temascaltepec,CIENEGUILLAS LABRA,UNIDAD DE CONSULTA EXTERNA,18.997725,-99.917092,1,0
Temascaltepec,EL SALITRE,UNIDAD DE CONSULTA EXTERNA,19.01858,-100.193324,1,0
Temascaltepec,REAL DE ARRIBA,UNIDAD DE CONSULTA EXTERNA,19.040592,-100.006681,1,0
Temascaltepec,SAN ANDRÉS DE LOS GAMAS,UNIDAD DE CONSULTA EXTERNA,19.036787,-99.974213,1,0
Temascaltepec,SAN FRANCISCO OXTOTILPAN,UNIDAD DE CONSULTA EXTERNA,19.168988,-99.902681,1,0
Temascaltepec,SAN LUCAS DEL PULQUE,UNIDAD DE CONSULTA EXTERNA,19.103708,-100.029404,1,0
Temascaltepec,SAN MATEO ALMOMOLOA,UNIDAD DE CONSULTA EXTERNA,19.1460271,-99.932858,1,0
Temascaltepec,SAN MIGUEL OXTOTILPAN,UNIDAD DE CONSULTA EXTERNA,19.150748,-99.887319,1,0
Temascaltepec,TEQUESQUIPAN,UNIDAD DE CONSULTA EXTERNA,19.058449,-99.945851,1,0
Temascaltepec,COMUNIDAD LA,UNIDAD DE CONSULTA EXTERNA,19.127663,-99.932365,2,0
Temascaltepec,SAN PEDRO TENAYAC,UNIDAD DE CONSULTA EXTERNA,19.047536,-100.175878,3,0
Temascaltepec,CENTRO DE SALUD URBANO TEMASCALTEPEC DE GONZÁLEZ,UNIDAD DE CONSULTA EXTERNA,19.044307,-100.048497,6,0
Temascaltepec,COORDINACIÓN MUNICIPAL DE TEMASCALTEPEC,ESTABLECIMIENTO DE APOYO,19.044538,-100.04825,0,0
Temoaya,HOSPITAL MUNICIPAL TEMOAYA,UNIDAD DE HOSPITALIZACION,19.4678,-99.6058,6,28
Temoaya,MAGDALENA TENEXPAN,UNIDAD DE CONSULTA EXTERNA,19.463602,-99.587776,1,0
Temoaya,SAN PEDRO ARRIBA 2A SECCION,UNIDAD DE CONSULTA EXTERNA,19.496025,-99.558876,1,0
Temoaya,SOLALPAN 1A SECCION,UNIDAD DE CONSULTA EXTERNA,19.491095,-99.575592,1,0
Temoaya,ZANJA VIEJA,UNIDAD DE CONSULTA EXTERNA,19.497968,-99.580901,1,0
Temoaya,ALLENDE,UNIDAD DE CONSULTA EXTERNA,19.4762949,-99.7137647,1,0
Temoaya,CENTRO DE SALUD LA CAÑADA,UNIDAD DE CONSULTA EXTERNA,19.491479,-99.596837,1,0
Temoaya,RANCHERIA LAS LOMAS,UNIDAD DE CONSULTA EXTERNA,19.497075,-99.690236,1,0
Temoaya,SAN JOSÉ COMALCO,UNIDAD DE CONSULTA EXTERNA,19.46940433,-99.62653485,1,0
Temoaya,SAN JOSÉ LAS LOMAS,UNIDAD DE CONSULTA EXTERNA,19.48528466,-99.67948392,1,0
Temoaya,SAN JOSÉ PATHE,UNIDAD DE CONSULTA EXTERNA,19.43548652,-99.63511792,1,0
Temoaya,SOLALPAN 2A. SECCIÓN,UNIDAD DE CONSULTA EXTERNA,19.491269,-99.575818,2,0
Temoaya,LAUREL,UNIDAD DE CONSULTA EXTERNA,19.498796,-99.560129,2,0
Temoaya,POTHE,UNIDAD DE CONSULTA EXTERNA,19.49084602,-99.60932541,2,0
Temoaya,SAN JOSÉ BUENAVISTA EL GRANDE,UNIDAD DE CONSULTA EXTERNA,19.41148321,-99.57901341,2,0
Temoaya,SN PEDRO ABAJO 1RA SECCIÓN,UNIDAD DE CONSULTA EXTERNA,19.478882,-99.579703,2,0
Temoaya,TABORDA,UNIDAD DE CONSULTA EXTERNA,19.45247033,-99.700849,2,0
Temoaya,JIQUIPILCO EL VIEJO,UNIDAD DE CONSULTA EXTERNA,19.51633134,-99.57251477,3,0
Temoaya,TROJES LAS,UNIDAD DE CONSULTA EXTERNA,19.41361866,-99.3617872,3,0
Temoaya,ENTHAVI,UNIDAD DE CONSULTA EXTERNA,19.502544,-99.573694,2,0
Temoaya,SAN DIEGO ALCALA,UNIDAD DE CONSULTA EXTERNA,19.453393,-99.614097,2,0
Temoaya,SAN LORENZO OYAMEL,UNIDAD DE CONSULTA EXTERNA,19.431229,-99.574612,2,0
Temoaya,SN PEDRO ABAJO SEGUNDA SECCIÓN,UNIDAD DE CONSULTA EXTERNA,19.501243,-99.567078,2,0
Temoaya,SAN PEDRO ARRIBA,UNIDAD DE CONSULTA EXTERNA,19.4826689,-99.5661607,3,0
Temoaya,TEMOAYA,UNIDAD DE CONSULTA EXTERNA,19.471306,-99.593521,5,0
Temoaya,JURISDICCIÓN DE REGULACIÓN SANITARIA NO. 13 ECATEPEC,ESTABLECIMIENTO DE APOYO,19.595944,-99.044,0,0
Tenancingo,H.G. TENANCINGO,UNIDAD DE HOSPITALIZACION,18.961405,-99.585693,11,91
Tenancingo,EL CARMEN,UNIDAD DE CONSULTA EXTERNA,18.918724,-99.558266,1,0
Tenancingo,SAN JOSÉ CHALMITA,UNIDAD DE CONSULTA EXTERNA,18.858067,-99.552628,1,0
Tenancingo,ZEPAYAUTLA,UNIDAD DE CONSULTA EXTERNA,19.012365,-99.551832,2,0
Tenancingo,CENTRO DE SALUD SAN MARTÍN COAPAXTONGO,UNIDAD DE CONSULTA EXTERNA,18.992122,-99.568814,2,0
Tenancingo,SAN JUAN XOCHIACA,UNIDAD DE CONSULTA EXTERNA,19.017813,-99.539241,1,0
Tenancingo,TECOMATLAN,UNIDAD DE CONSULTA EXTERNA,18.980821,-99.528689,2,0
Tenancingo,SANTA ANA IXTLAHUATZINGO,UNIDAD DE CONSULTA EXTERNA,18.968412,-99.615242,3,0
Tenancingo,C.S.U. TENANCINGO,UNIDAD DE CONSULTA EXTERNA,18.963504,-99.594781,10,0
Tenancingo,JURISDICCIÓN DE REGULACION SANITARIA,ESTABLECIMIENTO DE APOYO,18.9608,-99.5906,0,0
Tenancingo,JURISDICCIÓN SANITARIA VIII. TENANCINGO,ESTABLECIMIENTO DE APOYO,18.963504,-99.594781,0,0
Tenango del Aire,CEAPS TENANGO DEL AIRE,UNIDAD DE CONSULTA EXTERNA,19.15688181,-98.86426714,5,4
Tenango del Aire,SAN JUAN COXTOCAN,UNIDAD DE CONSULTA EXTERNA,19.137941,-98.843144,2,0
Tenango del Valle,HOSPITAL MUNICIPAL MARIANO MATAMOROS BICENTENARIO TENANGO DEL VALLE,UNIDAD DE HOSPITALIZACION,19.1036563,-99.5850054,13,24
Tenango del Valle,SAN FRANCISCO TETETLA,UNIDAD DE CONSULTA EXTERNA,19.114901,-99.602468,1,0
Tenango del Valle,SAN FRANCISCO PUTLA,UNIDAD DE CONSULTA EXTERNA,19.131735,-99.633288,3,0
Tenango del Valle,SAN FRANCISCO TEPEXOXUCA,UNIDAD DE CONSULTA EXTERNA,19.064318,-99.546272,2,0
Tenango del Valle,SAN MIGUEL BALDERAS,UNIDAD DE CONSULTA EXTERNA,19.109435,-99.651092,2,0
Tenango del Valle,SANTIAGUITO COAXUSTENCO,UNIDAD DE CONSULTA EXTERNA,19.124271,-99.581391,2,0
Tenango del Valle,ZICTEPEC,UNIDAD DE CONSULTA EXTERNA,19.03321,-99.58098,2,0
Tenango del Valle,ATLATLAHUCA,UNIDAD DE CONSULTA EXTERNA,19.069962,-99.60582,4,0
Tenango del Valle,SAN PEDRO TLANIXCO,UNIDAD DE CONSULTA EXTERNA,19.07359,-99.650455,3,0
Tenango del Valle,SANTA MARÍA JAJALPA,UNIDAD DE CONSULTA EXTERNA,19.113674,-99.531212,4,0
Tenango del Valle,ALMACÉN JURISDICCIONAL TENANGO DEL VALLE,ESTABLECIMIENTO DE APOYO,19.123886,-99.581535,0,0
Tenango del Valle,JURISDICCIÓN DE REGULACIÓN SANITARIA NO. 15 TENANGO DEL VALLE,ESTABLECIMIENTO DE APOYO,19.0985,-99.5904,0,0
Tenango del Valle,JURISDICCIÓN SANITARIA IV TENANGO DEL VALLE,ESTABLECIMIENTO DE APOYO,19.093284,-99.585899,0,0
Teoloyucan,CEAPS TEOLOYUCAN,UNIDAD DE CONSULTA EXTERNA,19.749161,-99.165171,7,4
Teoloyucan,SANTA MARÍA CALIACAC,UNIDAD DE CONSULTA EXTERNA,19.760242,-99.176144,2,0
Teoloyucan,SAN BARTOLO,UNIDAD DE CONSULTA EXTERNA,19.731692,-99.161026,2,0
Teoloyucan,SANTA CRUZ DEL MONTE,UNIDAD DE CONSULTA EXTERNA,19.770674,-99.226224,2,0
Teoloyucan,TEOLOYUCAN,UNIDAD DE CONSULTA EXTERNA,19.744957,-99.182073,4,0
Teotihuacán,CEAPS IGNACIO ALLENDE SAN JUAN TEOTIHUACÁN,UNIDAD DE CONSULTA EXTERNA,19.685259,-98.872849,7,4
Teotihuacán,SAN AGUSTÍN ACTIPAC,UNIDAD DE CONSULTA EXTERNA,19.731986,-98.896493,1,0
Teotihuacán,ATLATONGO,UNIDAD DE CONSULTA EXTERNA,19.67139,-98.902059,2,0
Teotihuacán,SAN FRANCISCO MAZAPA,UNIDAD DE CONSULTA EXTERNA,19.692195,-98.832902,2,0
Teotihuacán,SAN LORENZO TLALMIMILOLPAN,UNIDAD DE CONSULTA EXTERNA,19.666559,-98.872406,2,0
Teotihuacán,SAN SEBASTIÁN XOLALPA,UNIDAD DE CONSULTA EXTERNA,19.673363,-98.84404,2,0
Teotihuacán,SANTA MARÍA COATLAN,UNIDAD DE CONSULTA EXTERNA,19.681935,-98.837789,2,0
Teotihuacán,CENTRO DE SALUD MAQUIXCO,UNIDAD DE CONSULTA EXTERNA,19.685177,-98.890317,2,0
Teotihuacán,JURISDICCIÓN DE REGULACIÓN SANITARIA NO. 18 TEOTIHUACAN,ESTABLECIMIENTO DE APOYO,19.684975,-98.86908611,0,0
Teotihuacán,JURISDICCIÓN SANITARIA XIII. TEOTIHUACÁN,ESTABLECIMIENTO DE APOYO,19.6854778,-98.87241944,0,0
Tepetlaoxtoc,CEAPS TEPETLAOXTOC,UNIDAD DE CONSULTA EXTERNA,19.575624,-98.817682,7,4
Tepetlaoxtoc,SAN BERNARDO TLALMIMILOLPAN,UNIDAD DE CONSULTA EXTERNA,19.561457,-98.788851,1,0
Tepetlaoxtoc,SAN PEDRO CHIAUTZINGO,UNIDAD DE CONSULTA EXTERNA,19.56816,-98.785437,1,0
Tepetlaoxtoc,LA CONCEPCIÓN JOLALPAN,UNIDAD DE CONSULTA EXTERNA,19.584105,-98.845882,1,0
Tepetlaoxtoc,SANTO TOMÁS APIPILHUASCO,UNIDAD DE CONSULTA EXTERNA,19.54165231,-98.7466791,1,0
Tepetlixpa,"HM TEPETLIXPA HERMENEGILDO GALEANA, BICENTENARIO",UNIDAD DE HOSPITALIZACION,19.029802,-98.817108,6,26
Tepetlixpa,CUECUECUAUTITLA,UNIDAD DE CONSULTA EXTERNA,19.015811,-98.843783,1,0
Tepetlixpa,NEPANTLA DE SOR JUANA INES,UNIDAD DE CONSULTA EXTERNA,18.981098,-98.851204,3,0
Tepetlixpa,CENTRO DE SALUD URBANO TEPETLIXPA,UNIDAD DE CONSULTA EXTERNA,19.017175,-98.824194,4,0
Tepotzotlán,HOSPITAL REGIONAL DE ALTA ESPECIALIDAD DE ZUMPANGO,UNIDAD DE HOSPITALIZACION,19.814534,-99.088196,41,233
Tepotzotlán,CEAPS TEPOZOTLAN NICOLÁS BRAVO,UNIDAD DE CONSULTA EXTERNA,19.714743,-99.219976,7,2
Tepotzotlán,SANTA CRUZ,UNIDAD DE CONSULTA EXTERNA,19.698186,-99.258568,2,0
Tepotzotlán,CAÑADA DE CISNEROS,UNIDAD DE CONSULTA EXTERNA,19.6964,-99.337309,2,0
Tepotzotlán,EL TRÉBOL HERMENEGILDO GALEANA BICENTENARIO,UNIDAD DE CONSULTA EXTERNA,19.721093,-99.203248,2,0
Tepotzotlán,SAN MATEO XOLOC,UNIDAD DE CONSULTA EXTERNA,19.702567,-99.252946,3,0
Tepotzotlán,SANTIAGO CUAUTLALPAN,UNIDAD DE CONSULTA EXTERNA,19.684317,-99.285208,3,0
Tequixquiac,COL. ADOLFO LÓPEZ MATEOS,UNIDAD DE CONSULTA EXTERNA,19.903172,-99.154335,1,0
Tequixquiac,SAN JOSÉ TEQUIXQUIAC,UNIDAD DE CONSULTA EXTERNA,19.910927,-99.123644,2,0
Tequixquiac,TLAPANALOYA,UNIDAD DE CONSULTA EXTERNA,19.932234,-99.095988,2,0
Tequixquiac,SAN MATEO TEQUIXQUIAC (MARCELO),UNIDAD DE CONSULTA EXTERNA,19.902748,-99.144463,4,0
Texcaltitlán,HOSPITAL JUAN ALDAMA BICENTENARIO,UNIDAD DE HOSPITALIZACION,18.925803,-99.942142,7,21
Texcaltitlán,C.S. HUAYATENCO,UNIDAD DE CONSULTA EXTERNA,18.886616,-99.968375,1,0
Texcaltitlán,CARBAJAL,UNIDAD DE CONSULTA EXTERNA,18.87426,-99.998503,1,0
Texcaltitlán,PALMILLAS,UNIDAD DE CONSULTA EXTERNA,18.96734,-99.884312,1,0
Texcaltitlán,SAN AGUSTÍN,UNIDAD DE CONSULTA EXTERNA,18.941097,-99.940651,1,0
Texcalyacac,CEAPS TEXCALYACAC BICENTENARIO,UNIDAD DE CONSULTA EXTERNA,19.131338,-99.501236,7,5
Texcoco,H.G. TEXCOCO GUADALUPE VICTORIA BICENTENARIO,UNIDAD DE HOSPITALIZACION,19.514271,-98.87178,13,115
Texcoco,HOSPITAL MATERNO DE TEXCOCO,UNIDAD DE HOSPITALIZACION,19.454352,-98.872683,6,30
Texcoco,LA MAGDALENA PANOAYA,UNIDAD DE CONSULTA EXTERNA,19.535934,-98.911858,1,0
Texcoco,SAN FELIPE,UNIDAD DE CONSULTA EXTERNA,19.50782042,-98.89937458,1,0
Texcoco,SAN JUAN TEZONTLA,UNIDAD DE CONSULTA EXTERNA,19.54208707,-98.81585863,1,0
Texcoco,SAN JUAN TOCUILA,UNIDAD DE CONSULTA EXTERNA,19.522252,-98.906816,1,0
Texcoco,SAN PABLO IXAYOC,UNIDAD DE CONSULTA EXTERNA,19.479333,-98.803828,1,0
Texcoco,SANTA CRUZ DE ARRIBA,UNIDAD DE CONSULTA EXTERNA,19.517209,-98.863705,1,0
Texcoco,SANTA MARÍA NATIVITAS,UNIDAD DE CONSULTA EXTERNA,19.49550237,-98.83739677,1,0
Texcoco,U. MÓVIL ISEM PLATEROS 2,UNIDAD DE CONSULTA EXTERNA,19.427716,-98.977265,0,0
Texcoco,U. MÓVIL ISEM PLATEROS 3,UNIDAD DE CONSULTA EXTERNA,19.427716,-98.977265,0,0
Texcoco,U. MÓVIL ISEM SAN LORENZO 3,UNIDAD DE CONSULTA EXTERNA,19.519814,-98.881648,0,0
Texcoco,U. MÓVIL ISEM SAN LORENZO 4,UNIDAD DE CONSULTA EXTERNA,19.519876,-98.881582,0,0
Texcoco,U. MÓVIL ISEM SAN PEDRO 1,UNIDAD DE CONSULTA EXTERNA,19.421118,-98.947467,0,0
Texcoco,U. MÓVIL ISEM SAN PEDRO 4,UNIDAD DE CONSULTA EXTERNA,19.421118,-98.947467,0,0
Texcoco,CENTRO DE SALUD SANTA CATARINA DEL MONTE,UNIDAD DE CONSULTA EXTERNA,19.49557,-98.782027,1,0
Texcoco,CENTRO DE SALUD SANTA MARÍA TECUANULCO,UNIDAD DE CONSULTA EXTERNA,19.499805,-98.771865,1,0
Texcoco,LA PURIFICACION,UNIDAD DE CONSULTA EXTERNA,19.525588,-98.818662,1,0
Texcoco,LEYES DE REFORMA,UNIDAD DE CONSULTA EXTERNA,19.472233,-98.8815,1,0
Texcoco,SAN BERNARDINO,UNIDAD DE CONSULTA EXTERNA,19.477008,-98.898979,1,0
Texcoco,SAN JERONIMO AMANALCO,UNIDAD DE CONSULTA EXTERNA,19.5189089,-98.76400885,1,0
Texcoco,SAN LUIS HUEXOTLA,UNIDAD DE CONSULTA EXTERNA,19.47863433,-98.86206505,1,0
Texcoco,SAN MIGUEL TLAIXPAN,UNIDAD DE CONSULTA EXTERNA,19.510036,-98.813557,1,0
Texcoco,SANTIAGO CUAUTLALPAN,UNIDAD DE CONSULTA EXTERNA,19.434199,-98.899151,1,0
Texcoco,TEQUEXQUINAHUAC,UNIDAD DE CONSULTA EXTERNA,19.479859,-98.8188874,1,0
Texcoco,SAN MIGUEL COATLINCHAN,UNIDAD DE CONSULTA EXTERNA,19.450506,-98.8694,2,0
Texcoco,TULANTONGO,UNIDAD DE CONSULTA EXTERNA,19.532451,-98.878985,2,0
Texcoco,CENTRO DE SALUD URBANO DR. JULIAN VILLARREAL,UNIDAD DE CONSULTA EXTERNA,19.519863,-98.881817,7,0
Texcoco,JURISDICCIÓN DE REGULACION SANITARIA,ESTABLECIMIENTO DE APOYO,19.517712,-98.881969,0,0
Tezoyuca,CEAPS TEZOYUCA,UNIDAD DE CONSULTA EXTERNA,19.591802,-98.917673,7,4
Tezoyuca,C.S. TEQUISISTLAN,UNIDAD DE CONSULTA EXTERNA,19.60161,-98.945325,1,0
Tianguistenco,GUADALUPE VICTORIA,UNIDAD DE CONSULTA EXTERNA,19.232479,-99.424208,1,0
Tianguistenco,CEAPS SANTIAGO TIANGUISTENCO BICENTENARIO,UNIDAD DE CONSULTA EXTERNA,19.17559,-99.466012,8,5
Tianguistenco,MAGDALENA DE LOS REYES,UNIDAD DE CONSULTA EXTERNA,19.189606,-99.410039,1,0
Tianguistenco,OCOTENCO,UNIDAD DE CONSULTA EXTERNA,19.131268,-99.447384,2,0
Tianguistenco,SAN BARTOLO DEL PROGRESO,UNIDAD DE CONSULTA EXTERNA,19.106576,-99.408904,2,0
Tianguistenco,CARAVANA SANTIAGO TIANGUISTENCO,UNIDAD DE CONSULTA EXTERNA,19.183162,-99.452739,2,0
Tianguistenco,SAN NICOLÁS COATEPEC,UNIDAD DE CONSULTA EXTERNA,19.13949,-99.43064,2,0
Tianguistenco,TILAPA I,UNIDAD DE CONSULTA EXTERNA,19.187755,-99.432701,3,0
Tianguistenco,TILAPA II,UNIDAD DE CONSULTA EXTERNA,19.189202,-99.422254,2,0
Tianguistenco,GUADALUPE YANCUITLALPAN,UNIDAD DE CONSULTA EXTERNA,19.18312,-99.45272,4,0
Tianguistenco,SAN PEDRO TLALTIZAPAN,UNIDAD DE CONSULTA EXTERNA,19.201,-99.501935,4,0
Timilpan,CEAPS TIMILPAN,UNIDAD DE CONSULTA EXTERNA,19.873262,-99.735337,7,4
Timilpan,EL PALMITO,UNIDAD DE CONSULTA EXTERNA,19.919443,-99.681473,1,0
Timilpan,HUAPANGO,UNIDAD DE CONSULTA EXTERNA,19.976485,-99.68501,1,0
Timilpan,SAN ANTONIO YONDEJE,UNIDAD DE CONSULTA EXTERNA,19.833504,-99.747182,1,0
Timilpan,SANTIAGUITO MAXDA,UNIDAD DE CONSULTA EXTERNA,19.820762,-99.761135,1,0
Timilpan,RINCÓN DE BUCIO,UNIDAD DE CONSULTA EXTERNA,19.875901,-99.688589,2,0
Timilpan,ZARAGOZA,UNIDAD DE CONSULTA EXTERNA,19.89529,-99.751209,2,0
Tlalmanalco,CEAPS TLALMANALCO EPIGMENIO DE LA PIEDRA,UNIDAD DE CONSULTA EXTERNA,19.206497,-98.797137,6,4
Tlalmanalco,SAN LORENZO TLALMIMILOLPAN,UNIDAD DE CONSULTA EXTERNA,19.22092327,-98.8040095,1,0
Tlalmanalco,CENTRO DE SALUD SANTO TOMÁS ATZINGO,UNIDAD DE CONSULTA EXTERNA,19.206512,-98.797161,3,0
Tlalmanalco,SAN RAFAEL,UNIDAD DE CONSULTA EXTERNA,19.208909,-98.75784,2,0
Tlalnepantla de Baz,CEAPS CON SERVICIOS GERIATRICOS REFORMA URBANA,UNIDAD DE CONSULTA EXTERNA,19.571792,-99.183489,9,0
Tlalnepantla de Baz,CAPA CENTRO NUEVA VIDA EL TENAYO,UNIDAD DE CONSULTA EXTERNA,19.545344,-99.167361,3,0
Tlalnepantla de Baz,CAPA CENTRO NUEVA VIDA LÁZARO CÁRDENAS III LA PRESA,UNIDAD DE CONSULTA EXTERNA,19.534197,-99.117529,3,0
Tlalnepantla de Baz,CAPA CENTRO NUEVA VIDA LA LAGUNA,UNIDAD DE CONSULTA EXTERNA,19.514175,-99.093666,3,0
Tlalnepantla de Baz,CAPASITS TLALNEPANTLA,UNIDAD DE CONSULTA EXTERNA,19.537926,-99.178295,4,0
Tlalnepantla de Baz,CENTRO DE SALUD CARACOLES,UNIDAD DE CONSULTA EXTERNA,19.5323806,99.0922423,3,0
Tlalnepantla de Baz,CUAUHTÉMOC,UNIDAD DE CONSULTA EXTERNA,19.555084,-99.166701,4,0
Tlalnepantla de Baz,BENITO JUÁREZ,UNIDAD DE CONSULTA EXTERNA,19.564314,-99.214954,6,0
Tlalnepantla de Baz,LÁZARO CÁRDENAS III,UNIDAD DE CONSULTA EXTERNA,19.534468,-99.117531,6,0
Tlalnepantla de Baz,SAN JAVIER,UNIDAD DE CONSULTA EXTERNA,19.536779,-99.192917,6,0
Tlalnepantla de Baz,DR. JORGE JIMÉNEZ CANTU,UNIDAD DE CONSULTA EXTERNA,19.540843,-99.093161,7,0
Tlalnepantla de Baz,EL TENAYO,UNIDAD DE CONSULTA EXTERNA,19.545147,-99.167332,7,0
Tlalnepantla de Baz,LA LAGUNA,UNIDAD DE CONSULTA EXTERNA,19.51425,-99.093544,7,0
Tlalnepantla de Baz,LÁZARO CÁRDENAS I,UNIDAD DE CONSULTA EXTERNA,19.545141,-99.114388,7,0
Tlalnepantla de Baz,LÁZARO CÁRDENAS II,UNIDAD DE CONSULTA EXTERNA,19.523035,-99.123754,7,0
Tlalnepantla de Baz,PRADO IXTACALA,UNIDAD DE CONSULTA EXTERNA,19.521515,-99.173782,7,0
Tlalnepantla de Baz,PRENSA NACIONAL,UNIDAD DE CONSULTA EXTERNA,19.511204,-99.166275,7,0
Tlalnepantla de Baz,SAN ANDRÉS ATENCO,UNIDAD DE CONSULTA EXTERNA,19.54372,-99.223146,7,0
Tlalnepantla de Baz,SAN LUCAS PATONI,UNIDAD DE CONSULTA EXTERNA,19.539092,-99.156358,7,0
Tlalnepantla de Baz,SAN PEDRO BARRIENTOS,UNIDAD DE CONSULTA EXTERNA,19.583832,-99.2002387,7,0
Tlalnepantla de Baz,SANTA CECILIA,UNIDAD DE CONSULTA EXTERNA,19.555904,-99.173019,7,0
Tlalnepantla de Baz,SAN JUANICO,UNIDAD DE CONSULTA EXTERNA,19.520853,-99.109404,9,0
Tlalnepantla de Baz,JURISDICCIÓN DE REGULACIÓN SANITARIA NO. 7 TLALNEPANTLA,ESTABLECIMIENTO DE APOYO,19.5499933,-99.1939578,0,0
Tlalnepantla de Baz,JURISDICCIÓN SANITARIA XIV. TLALNEPANTLA,ESTABLECIMIENTO DE APOYO,19.5368992,-99.1928768,0,0
Tlatlaya,HOSPITAL MUNICIPAL SAN PEDRO LIMÓN,UNIDAD DE HOSPITALIZACION,18.571225,-100.31328,8,29
Tlatlaya,MOCTEZUMA,UNIDAD DE CONSULTA EXTERNA,18.490488,-100.226255,1,0
Tlatlaya,NUEVO COPALTEPEC,UNIDAD DE CONSULTA EXTERNA,18.383339,-100.288138,1,0
Tlatlaya,PALMAR GRANDE,UNIDAD DE CONSULTA EXTERNA,18.581135,-100.411442,1,0
Tlatlaya,SAN FRANCISCO DE ASIS,UNIDAD DE CONSULTA EXTERNA,18.623777,-100.2793,1,0
Tlatlaya,SAN JUAN CORRAL,UNIDAD DE CONSULTA EXTERNA,18.546242,-100.177406,1,0
Tlatlaya,SAN JUAN TETITLAN,UNIDAD DE CONSULTA EXTERNA,18.610065,-100.197682,1,0
Tlatlaya,SAN MATEO GUAYATENCO,UNIDAD DE CONSULTA EXTERNA,18.631948,-100.149504,1,0
Tlatlaya,SANTA ANA ZICATECOYAN,UNIDAD DE CONSULTA EXTERNA,18.571215,-100.22057,2,0
Tlatlaya,SANTA MARÍA,UNIDAD DE CONSULTA EXTERNA,18.602061,-100.10693,1,0
Tlatlaya,TLACOCUSPAN,UNIDAD DE CONSULTA EXTERNA,18.615986,-100.318776,1,0
Tlatlaya,COATEPEC,UNIDAD DE CONSULTA EXTERNA,18.64413,-100.219159,2,0
Tlatlaya,MAYALTEPEC,UNIDAD DE CONSULTA EXTERNA,18.581617,-100.372021,2,0
Tlatlaya,SAN ANTONIO DEL ROSARIO,UNIDAD DE CONSULTA EXTERNA,18.399167,-100.308528,3,0
Tlatlaya,CARAVANA ANCON DE LA PRESA,UNIDAD DE CONSULTA EXTERNA,18.581099,-100.303212,0,0
Tlatlaya,CARAVANA HUIXTITLA,UNIDAD DE CONSULTA EXTERNA,18.581099,-100.303212,0,0
Tlatlaya,CARAVANA TEJUPILQUITO,UNIDAD DE CONSULTA EXTERNA,18.581099,-100.303212,0,0
Tlatlaya,SAN PEDRO LIMON,UNIDAD DE CONSULTA EXTERNA,18.581213,-100.303482,1,0
Toluca,CENTRO MÉDICO LIC. ADOLFO LÓPEZ MATEOS,UNIDAD DE HOSPITALIZACION,19.3196,-99.633094,48,266
Toluca,HOSPITAL MATERNO PERINATAL MÓNICA PRETELINI SÁENZ,UNIDAD DE HOSPITALIZACION,19.27244,-99.656937,28,149
Toluca,H.G. DR. NICOLÁS SAN JUAN,UNIDAD DE HOSPITALIZACION,19.316095,-99.636675,16,188
Toluca,CENTRO ESTATAL DE REHABILITACIÓN Y EDUCACIÓN ESPECIAL DE TOLUCA,UNIDAD DE CONSULTA EXTERNA,19.296603,-99.674201,5,0
Toluca,BARRIO DE JESÚS FRACCIÓN 1 A,UNIDAD DE CONSULTA EXTERNA,19.357305,-99.657289,1,0
Toluca,SAN MARTÍN TOLTEPEC,UNIDAD DE CONSULTA EXTERNA,19.352573,-99.705283,1,0
Toluca,TECAXIC,UNIDAD DE CONSULTA EXTERNA,19.325862,-99.715751,1,0
Toluca,CENTRO DE SALUD SAN DIEGO LINARES,UNIDAD DE CONSULTA EXTERNA,19.388959,-99.636033,3,0
Toluca,BARRIO DE JESÚS FRACCIÓN 2 A,UNIDAD DE CONSULTA EXTERNA,19.363713,-99.666773,5,0
Toluca,PUEBLO NUEVO,UNIDAD DE CONSULTA EXTERNA,19.358774,-99.64267,4,0
Toluca,CAPA CENTRO NUEVA VIDA PUEBLO NUEVO SAN PABLO AUTOPAN,UNIDAD DE CONSULTA EXTERNA,19.358753,-99.642736,3,0
Toluca,CAPA CENTRO NUEVA VIDA SAN MATEO OTZACATIPAN,UNIDAD DE CONSULTA EXTERNA,19.320877,-99.606133,3,0
Toluca,CAPA CENTRO NUEVA VIDA TOLUCA,UNIDAD DE CONSULTA EXTERNA,19.291862,-99.643178,4,0
